zpid,streetName,city,state,zipcode,latitude,longitude,price,bathrooms,bedrooms,livingArea,homeType,homeStatus,daysOnZillow,zestimate,rentZestimate,isPreforeclosureAuction,isZillowOwned,currency,country,taxAssessedValue,lotAreaValue,lotAreaUnit,is_newHome,newConstructionType,datePriceChanged,priceReduction,priceChange,is_openHouse,openHouse,open_house_showing,imgSrc,homeDetailUrl,price_to_rent_ratio
2072348967,1108 E Elgin Ave S,Salt Lake City,UT,84106,40.705242,-111.85947,849000,2,3,2598,SINGLE_FAMILY,FOR_SALE,-1,,1699,FALSE,FALSE,USD,USA,,10018.8,sqft,,,,,,,,,https://photos.zillowstatic.com/fp/8c410eb3577e3d99b23c36519e4987eb-p_e.jpg,https://www.zillow.com/homedetails/1108-E-Elgin-Ave-S-Salt-Lake-City-UT-84106/2072348967_zpid/,
72632530,6261 W Terrace Ridge Dr,West Valley City,UT,84128,40.675503,-112.0405,799999,5,5,5131,SINGLE_FAMILY,FOR_SALE,-1,797800,2529,FALSE,FALSE,USD,USA,667700,10018.8,sqft,,,,,,,,,https://photos.zillowstatic.com/fp/b3209dcacb8f1690d2c7fd62abe25577-p_e.jpg,https://www.zillow.com/homedetails/6261-W-Terrace-Ridge-Dr-West-Valley-City-UT-84128/72632530_zpid/,315.4606564
12815101,4329 S Mignon Dr,West Valley City,UT,84120,40.676613,-111.99914,510000,2,4,2072,SINGLE_FAMILY,FOR_SALE,-1,521200,1912,FALSE,FALSE,USD,USA,380400,8712,sqft,,,,,,,,,https://photos.zillowstatic.com/fp/ea4ff920f6c74561968d021b84c1f933-p_e.jpg,https://www.zillow.com/homedetails/4329-S-Mignon-Dr-West-Valley-City-UT-84120/12815101_zpid/,272.5941423
12741992,2525 S Lester St,West Valley City,UT,84119,40.715977,-111.93539,379888,1,3,925,SINGLE_FAMILY,FOR_SALE,-1,387700,1627,FALSE,FALSE,USD,USA,299100,10018.8,sqft,,,,,,TRUE,Fri. 4-6pm,"[{'open_house_start': 1714172400000, 'open_house_end': 1714179600000}]",https://photos.zillowstatic.com/fp/67b3a1488dbfe0360d5e594ab9d7b87b-p_e.jpg,https://www.zillow.com/homedetails/2525-S-Lester-St-West-Valley-City-UT-84119/12741992_zpid/,238.2913337
12738716,728 S 900 W,Salt Lake City,UT,84104,40.753315,-111.91732,595000,2,3,2039,SINGLE_FAMILY,FOR_SALE,-1,613200,1814,FALSE,FALSE,USD,USA,345300,6969.6,sqft,,,,,,,,,https://photos.zillowstatic.com/fp/f7a98e01be2672229fe80c3476679d8f-p_e.jpg,https://www.zillow.com/homedetails/728-S-900-W-Salt-Lake-City-UT-84104/12738716_zpid/,338.0374862
12746447,3170 S 4440 W,West Valley City,UT,84120,40.702606,-111.997475,525000,3,5,2364,SINGLE_FAMILY,FOR_SALE,-1,536200,2282,FALSE,FALSE,USD,USA,368200,9147.6,sqft,,,,,,,,,https://photos.zillowstatic.com/fp/0585f5cea3d85fc7dcf4738d8b336125-p_e.jpg,https://www.zillow.com/homedetails/3170-S-4440-W-West-Valley-City-UT-84120/12746447_zpid/,234.9693252
12720312,380 N K St,Salt Lake City,UT,84103,40.778088,-111.86829,550000,1,1,2157,SINGLE_FAMILY,FOR_SALE,-1,565100,2139,FALSE,FALSE,USD,USA,502800,4356,sqft,,,,,,TRUE,Sat. 11am-2pm,"[{'open_house_start': 1714240800000, 'open_house_end': 1714251600000}]",https://photos.zillowstatic.com/fp/7ec64c940de5a73430a97bc55608c044-p_e.jpg,https://www.zillow.com/homedetails/380-N-K-St-Salt-Lake-City-UT-84103/12720312_zpid/,264.1888733
12759236,1113 S 700 E,Salt Lake City,UT,84105,40.744644,-111.87064,725000,2,3,2390,SINGLE_FAMILY,FOR_SALE,-1,,2914,FALSE,FALSE,USD,USA,568200,5227.2,sqft,,,,,,TRUE,Sat. 11am-2pm,"[{'open_house_start': 1714240800000, 'open_house_end': 1714251600000}]",https://photos.zillowstatic.com/fp/fd369d87c66b82ef61c104ab29d6baa1-p_e.jpg,https://www.zillow.com/homedetails/1113-S-700-E-Salt-Lake-City-UT-84105/12759236_zpid/,
12713019,887 N 1500 W,Salt Lake City,UT,84116,40.78884,-111.93377,464000,1,3,1582,SINGLE_FAMILY,FOR_SALE,-1,484900,1849,FALSE,FALSE,USD,USA,353100,7840.8,sqft,,,,,,,,,https://photos.zillowstatic.com/fp/c26bfd567428d732b9a722e463abde0c-p_e.jpg,https://www.zillow.com/homedetails/887-N-1500-W-Salt-Lake-City-UT-84116/12713019_zpid/,262.2498648
12768252,1800 E Blaine Ave,Salt Lake City,UT,84108,40.732082,-111.83937,684900,2,4,1772,SINGLE_FAMILY,FOR_SALE,-1,701300,3165,FALSE,FALSE,USD,USA,600400,6534,sqft,,,,,,TRUE,Sat. 12-2pm,"[{'open_house_start': 1714244400000, 'open_house_end': 1714251600000}]",https://photos.zillowstatic.com/fp/bc5a610dd308de5a0f8a4a8f95d3dfcf-p_e.jpg,https://www.zillow.com/homedetails/1800-E-Blaine-Ave-Salt-Lake-City-UT-84108/12768252_zpid/,221.5797788
12733688,5664 W 3980 S,West Valley City,UT,84128,40.68527,-112.0263,509900,2,4,1824,MULTI_FAMILY,FOR_SALE,-1,520300,2301,FALSE,FALSE,USD,USA,369400,10018.8,sqft,,,,,,,,,https://photos.zillowstatic.com/fp/3a0d974b42a654c17e1b7ee53405be9e-p_e.jpg,https://www.zillow.com/homedetails/5664-W-3980-S-West-Valley-UT-84128/12733688_zpid/,226.1190787
12815380,4273 S Deno Dr,West Valley City,UT,84120,40.677895,-111.99179,509000,2,5,2374,SINGLE_FAMILY,FOR_SALE,-1,519800,2496,FALSE,FALSE,USD,USA,459000,10018.8,sqft,,,,,,,,,https://photos.zillowstatic.com/fp/21732ce771b8dd38f2086f176016ce7e-p_e.jpg,https://www.zillow.com/homedetails/4273-S-Deno-Dr-West-Valley-City-UT-84120/12815380_zpid/,208.2532051
12746916,3623 S Richfield Ct,West Valley City,UT,84120,40.693455,-112.003265,420000,3,4,2288,SINGLE_FAMILY,FOR_SALE,-1,431000,2496,FALSE,FALSE,USD,USA,348700,0.28,acres,,,,,,,,,https://photos.zillowstatic.com/fp/f820bd068fc4b804e615fca4954cb634-p_e.jpg,https://www.zillow.com/homedetails/3623-S-Richfield-Ct-West-Valley-City-UT-84120/12746916_zpid/,172.6762821
2061538438,3055 S Sunrise Pointe Ct,West Valley City,UT,84119,40.70453,-111.96897,400000,2,,2240,SINGLE_FAMILY,FOR_SALE,-1,405200,1719,FALSE,FALSE,USD,USA,,0.39,acres,,,1.66E+12,,244000,,,,https://photos.zillowstatic.com/fp/7384687d869b24c3a7ac96ef229096dc-p_e.jpg,https://www.zillow.com/homedetails/3055-S-Sunrise-Pointe-Ct-West-Valley-City-UT-84119/2061538438_zpid/,235.718441
12724002,3342 S Shalise Cir,West Valley City,UT,84120,40.699417,-112.0102,505000,3,4,2208,SINGLE_FAMILY,FOR_SALE,-1,516200,2385,FALSE,FALSE,USD,USA,433000,0.25,acres,,,,,,TRUE,Sat. 10am-12pm,"[{'open_house_start': 1714237200000, 'open_house_end': 1714244400000}]",https://photos.zillowstatic.com/fp/c4417461feb02b42883c9c7a15c7510c-p_e.jpg,https://www.zillow.com/homedetails/3342-S-Shalise-Cir-West-Valley-City-UT-84120/12724002_zpid/,216.4360587
12749650,3626 W Larry Cir,West Valley City,UT,84120,40.68321,-111.977684,545000,2,5,2412,SINGLE_FAMILY,FOR_SALE,-1,556200,2562,FALSE,FALSE,USD,USA,401100,9583.2,sqft,,,,,,TRUE,Sat. 12-3pm,"[{'open_house_start': 1714244400000, 'open_house_end': 1714255200000}]",https://photos.zillowstatic.com/fp/30e38b851249a71dc68ec174bb2c9e6c-p_e.jpg,https://www.zillow.com/homedetails/3626-W-Larry-Cir-West-Valley-City-UT-84120/12749650_zpid/,217.0960187
12815032,4368 S 4625 W,West Valley City,UT,84120,40.67563,-112.001724,450000,2,3,2670,SINGLE_FAMILY,FOR_SALE,-1,460900,2162,FALSE,FALSE,USD,USA,391100,8712,sqft,,,,,,TRUE,Sat. 11am-1pm,"[{'open_house_start': 1714240800000, 'open_house_end': 1714248000000}]",https://photos.zillowstatic.com/fp/d3ea1b52c993d5f67cb0e79962e940de-p_e.jpg,https://www.zillow.com/homedetails/4368-S-4625-W-West-Valley-City-UT-84120/12815032_zpid/,213.1822387
12777894,2521 S Kenwood St,Salt Lake City,UT,84106,40.716675,-111.8407,699000,2,3,2044,SINGLE_FAMILY,FOR_SALE,-1,716600,2694,FALSE,FALSE,USD,USA,563700,5227.2,sqft,,,,,,,,,https://photos.zillowstatic.com/fp/93198959b7a3f53f83630976af90c119-p_e.jpg,https://www.zillow.com/homedetails/2521-S-Kenwood-St-Salt-Lake-City-UT-84106/12777894_zpid/,265.9985152
11920955,1893 N 50 W,Orem,UT,84057,40.3316,-111.69789,599000,3,5,2723,SINGLE_FAMILY,FOR_SALE,-1,621300,2622,FALSE,FALSE,USD,USA,316300,9583.2,sqft,,,,,,TRUE,Sat. 11am-2pm,"[{'open_house_start': 1714240800000, 'open_house_end': 1714251600000}]",https://photos.zillowstatic.com/fp/0115810dfe6c50c3195471132d408ad2-p_e.jpg,https://www.zillow.com/homedetails/1893-N-50-W-Orem-UT-84057/11920955_zpid/,236.9565217
12748542,4060 S 4150 W,West Valley City,UT,84120,40.682953,-111.99118,529900,3,4,2208,SINGLE_FAMILY,FOR_SALE,-1,541500,2415,FALSE,FALSE,USD,USA,428000,7840.8,sqft,,,,,,TRUE,Sat. 11am-1pm,"[{'open_house_start': 1714240800000, 'open_house_end': 1714248000000}]",https://photos.zillowstatic.com/fp/b2431c1b56d0de8ba65bbb22a195684a-p_e.jpg,https://www.zillow.com/homedetails/4060-S-4150-W-West-Valley-City-UT-84120/12748542_zpid/,224.2236025
348420477,162 S Ridgecrest Dr,Orem,UT,84058,40.294598,-111.71804,474900,2,5,2072,SINGLE_FAMILY,FOR_SALE,-1,,,FALSE,FALSE,USD,USA,,7840.8,sqft,,,,,,,,,https://photos.zillowstatic.com/fp/401320997f1a627df63e425ca3fc3ebf-p_e.jpg,https://www.zillow.com/homedetails/162-S-Ridgecrest-Dr-Orem-UT-84058/348420477_zpid/,
12751090,4077 S Dublin Cir,West Valley City,UT,84119,40.68262,-111.95692,400000,3,4,2036,MULTI_FAMILY,FOR_SALE,-1,407400,2495,FALSE,FALSE,USD,USA,321800,5662.8,sqft,,,,,,,,,https://photos.zillowstatic.com/fp/3c055ced45c0cb91be2bc342c79047c3-p_e.jpg,https://www.zillow.com/homedetails/4077-S-Dublin-Cir-West-Valley-City-UT-84119/12751090_zpid/,163.2865731
63341247,3909 S Othello Way,West Valley City,UT,84128,40.68659,-112.05118,540000,5,7,1208,SINGLE_FAMILY,FOR_SALE,-1,546900,2498,FALSE,FALSE,USD,USA,423700,6534,sqft,,,,,,TRUE,Thu. 8am-7:30pm,"[{'open_house_start': 1714057200000, 'open_house_end': 1714098600000}, {'open_house_start': 1714143600000, 'open_house_end': 1714185000000}, {'open_house_start': 1714230000000, 'open_house_end': 1714271400000}, {'open_house_start': 1714316400000, 'open_house_end': 1714357800000}, {'open_house_start': 1714402800000, 'open_house_end': 1714444200000}, {'open_house_start': 1714489200000, 'open_house_end': 1714530600000}, {'open_house_start': 1714575600000, 'open_house_end': 1714617000000}, {'open_house_start': 1714662000000, 'open_house_end': 1714703400000}, {'open_house_start': 1714748400000, 'open_house_end': 1714789800000}, {'open_house_start': 1714834800000, 'open_house_end': 1714876200000}]",https://photos.zillowstatic.com/fp/d6cf7d462c904f40ccd0b8d933ffbd3b-p_e.jpg,https://www.zillow.com/homedetails/3909-S-Othello-Way-West-Valley-City-UT-84128/63341247_zpid/,218.9351481
12799044,4889 W Westpoint Dr,West Valley City,UT,84120,40.670654,-112.00779,469900,2,4,1707,SINGLE_FAMILY,FOR_SALE,-1,480100,1800,FALSE,FALSE,USD,USA,341800,7405.2,sqft,,,,,,,,,https://photos.zillowstatic.com/fp/f24c56aae7ec253618b1e7b52ae7bd30-p_e.jpg,https://www.zillow.com/homedetails/4889-W-Westpoint-Dr-West-Valley-City-UT-84120/12799044_zpid/,266.7222222
12721439,67 N P St,Salt Lake City,UT,84103,40.77109,-111.861305,650000,2,3,2574,SINGLE_FAMILY,FOR_SALE,-1,674500,2982,FALSE,FALSE,USD,USA,650100,3049.2,sqft,,,,,,TRUE,Sat. 2-4pm,"[{'open_house_start': 1714251600000, 'open_house_end': 1714258800000}]",https://photos.zillowstatic.com/fp/984007501e06d08128dbf4ad8e513ec5-p_e.jpg,https://www.zillow.com/homedetails/67-N-P-St-Salt-Lake-City-UT-84103/12721439_zpid/,226.1904762
12757549,318 E Harvard Ave,Salt Lake City,UT,84111,40.744682,-111.88185,475000,2,3,1340,SINGLE_FAMILY,FOR_SALE,-1,,2633,FALSE,FALSE,USD,USA,435000,4791.6,sqft,,,,,,,,,https://photos.zillowstatic.com/fp/6ac5d8e1f70d3a7f51153fb4685f42f1-p_e.jpg,https://www.zillow.com/homedetails/318-E-Harvard-Ave-Salt-Lake-City-UT-84111/12757549_zpid/,
251206440,68 E Columbus Ct,Salt Lake City,UT,84103,40.78441,-111.88769,2000000,4,5,4070,SINGLE_FAMILY,FOR_SALE,-1,2017800,6137,FALSE,FALSE,USD,USA,1297900,0.69,acres,,,,,,,,,https://photos.zillowstatic.com/fp/96a5a42c5d1fce1d9feea884c27a1854-p_e.jpg,https://www.zillow.com/homedetails/68-E-Columbus-Ct-Salt-Lake-City-UT-84103/251206440_zpid/,328.7925697
72121480,342 S 900 E,Salt Lake City,UT,84102,40.761692,-111.86585,729000,2,2,1003,SINGLE_FAMILY,FOR_SALE,-1,740200,1927,FALSE,FALSE,USD,USA,611100,4791.6,sqft,,,,,,TRUE,Sat. 11am-2pm,"[{'open_house_start': 1714240800000, 'open_house_end': 1714251600000}]",https://photos.zillowstatic.com/fp/8d77b58fd473e766ab69c7d224e78529-p_e.jpg,https://www.zillow.com/homedetails/342-S-900-E-Salt-Lake-City-UT-84102/72121480_zpid/,384.1203944
50216168,575 S 1000 E APT C,Salt Lake City,UT,84102,40.756638,-111.8621,300000,1,2,864,CONDO,FOR_SALE,-1,301800,1538,FALSE,FALSE,USD,USA,228400,435.6,sqft,,,,,,,,,https://photos.zillowstatic.com/fp/7161ba2a1305ac1d40f8d3c9b084b3e2-p_e.jpg,https://www.zillow.com/homedetails/575-S-1000-E-APT-C-Salt-Lake-City-UT-84102/50216168_zpid/,196.2288687
11915650,1466 E 970 N,Orem,UT,84097,40.314793,-111.66097,1190000,6,7,7094,SINGLE_FAMILY,FOR_SALE,-1,1186100,5215,FALSE,FALSE,USD,USA,834400,0.34,acres,,,,,,,,,https://photos.zillowstatic.com/fp/0253ecbb2cbe4fd4a88188a02203cbec-p_e.jpg,https://www.zillow.com/homedetails/1466-E-970-N-Orem-UT-84097/11915650_zpid/,227.4400767
348510955,131 E 1st Ave N 705,Salt Lake City,UT,84103,40.770893,-111.88611,1199000,3,3,2080,CONDO,FOR_SALE,-1,,,FALSE,FALSE,USD,USA,,1306.8,sqft,,,,,,,,,https://photos.zillowstatic.com/fp/fc16e8a657e4896a03af2c695ba3f249-p_e.jpg,https://www.zillow.com/homedetails/131-E-1st-Ave-N-705-Salt-Lake-City-UT-84103/348510955_zpid/,
12711910,1770 W Trafalga Way APT D,Salt Lake City,UT,84116,40.79708,-111.94119,280000,2,2,1533,TOWNHOUSE,FOR_SALE,-1,287100,1733,FALSE,FALSE,USD,USA,236700,435.6,sqft,,,,,,TRUE,Sat. 10am-1pm,"[{'open_house_start': 1714237200000, 'open_house_end': 1714248000000}]",https://photos.zillowstatic.com/fp/2e7f8556cc952e714f8e01ba344d4602-p_e.jpg,https://www.zillow.com/homedetails/1770-W-Trafalga-Way-APT-D-Salt-Lake-City-UT-84116/12711910_zpid/,165.6664743
2091532370,1495 S 200 E,Salt Lake City,UT,84115,40.737137,-111.884964,2200000,9,18,6553,MULTI_FAMILY,FOR_SALE,-1,763700,1295,FALSE,FALSE,USD,USA,,9583.2,sqft,,,,,,,,,https://photos.zillowstatic.com/fp/5c4e0b3c9b2dfba2e41ea64e74157db1-p_e.jpg,https://www.zillow.com/homedetails/1495-S-200-E-Salt-Lake-City-UT-84115/2091532370_zpid/,589.7297297
11899110,571 N 650 E,Orem,UT,84097,40.307697,-111.680435,529000,2,4,2484,SINGLE_FAMILY,FOR_SALE,-1,536400,1781,FALSE,FALSE,USD,USA,313300,0.27,acres,,,,,,,,,https://photos.zillowstatic.com/fp/fab6862e51e8d8fb7d8d4cd95c54fbff-p_e.jpg,https://www.zillow.com/homedetails/571-N-650-E-Orem-UT-84097/11899110_zpid/,301.1791129
2072009583,620 E 1700 S UNIT 7,Salt Lake City,UT,84105,40.73288,-111.873375,850000,4,4,2491,TOWNHOUSE,FOR_SALE,-1,,1350,FALSE,FALSE,USD,USA,,435.6,sqft,,,,,,TRUE,Sat. 11am-2pm,"[{'open_house_start': 1714240800000, 'open_house_end': 1714251600000}]",https://photos.zillowstatic.com/fp/1d305b5b69374754b22f67fd3867f045-p_e.jpg,https://www.zillow.com/homedetails/620-E-1700-S-UNIT-7-Salt-Lake-City-UT-84105/2072009583_zpid/,
12760196,1233 E 1300 S,Salt Lake City,UT,84105,40.741978,-111.85565,700000,2,3,2026,SINGLE_FAMILY,FOR_SALE,-1,705100,2888,FALSE,FALSE,USD,USA,533800,8712,sqft,,,,,,,,,https://photos.zillowstatic.com/fp/08157dcfa60ccf3434d151396da6043f-p_e.jpg,https://www.zillow.com/homedetails/1233-E-1300-S-Salt-Lake-City-UT-84105/12760196_zpid/,244.1481994
12758492,947 S 700 E,Salt Lake City,UT,84105,40.748585,-111.87064,660000,3,3,1974,SINGLE_FAMILY,FOR_SALE,-1,640300,2979,FALSE,FALSE,USD,USA,515300,8712,sqft,,,1.71E+12,"$12,500 (Apr 17)",-12500,,,,https://photos.zillowstatic.com/fp/c963e8c5a90dc6e5f475cb84771073b5-p_e.jpg,https://www.zillow.com/homedetails/947-S-700-E-Salt-Lake-City-UT-84105/12758492_zpid/,214.9378986
12778502,2263 S 2200 E,Salt Lake City,UT,84109,40.721687,-111.82833,1650000,4,4,4480,SINGLE_FAMILY,FOR_SALE,-1,1607600,5848,FALSE,FALSE,USD,USA,1161900,0.25,acres,,,1.71E+12,"$145,000 (Apr 8)",-145000,,,,https://photos.zillowstatic.com/fp/6127e30b671da5e44482d9f550959373-p_e.jpg,https://www.zillow.com/homedetails/2263-S-2200-E-Salt-Lake-City-UT-84109/12778502_zpid/,274.8974008
2072771255,2522 S Beverly St E,Salt Lake City,UT,84106,40.7167,-111.85173,985000,3,4,2394,SINGLE_FAMILY,FOR_SALE,-1,1003900,1774,FALSE,FALSE,USD,USA,,6098.4,sqft,,,,,,,,,https://photos.zillowstatic.com/fp/d59fbdf173267d518d1441175e9f0b0d-p_e.jpg,https://www.zillow.com/homedetails/2522-S-Beverly-St-E-Salt-Lake-City-UT-84106/2072771255_zpid/,565.8962796
12758444,719 E 900 S,Salt Lake City,UT,84105,40.750076,-111.870255,635000,2,3,1440,SINGLE_FAMILY,FOR_SALE,-1,648100,2498,FALSE,FALSE,USD,USA,543200,1742.4,sqft,,,,,,TRUE,Sat. 11am-2pm,"[{'open_house_start': 1714240800000, 'open_house_end': 1714251600000}]",https://photos.zillowstatic.com/fp/3914e8b0b3c0109034929fb693b551ea-p_e.jpg,https://www.zillow.com/homedetails/719-E-900-S-Salt-Lake-City-UT-84105/12758444_zpid/,259.447558
2071363099,1394 S Utah St W,Salt Lake City,UT,84104,40.73893,-111.93699,539000,4,5,2486,SINGLE_FAMILY,FOR_SALE,-1,544400,1374,FALSE,FALSE,USD,USA,,8276.4,sqft,,,,,,,,,https://photos.zillowstatic.com/fp/c2be0f992391751a2513d5050a9905fc-p_e.jpg,https://www.zillow.com/homedetails/1394-S-Utah-St-W-Salt-Lake-City-UT-84104/2071363099_zpid/,396.2154294
12731345,6481 W 3500 S,West Valley City,UT,84128,40.69629,-112.04585,450000,2,3,1976,SINGLE_FAMILY,FOR_SALE,-1,456600,2025,FALSE,FALSE,USD,USA,350100,8276.4,sqft,,,,,,,,,https://photos.zillowstatic.com/fp/e3ad7fea38b2831ab3c04f1f41cb4412-p_e.jpg,https://www.zillow.com/homedetails/6481-W-3500-S-West-Valley-City-UT-84128/12731345_zpid/,225.4814815
2061252258,86 B St APT 30,Salt Lake City,UT,84103,40.771397,-111.88164,290000,1,1,500,CONDO,FOR_SALE,-1,291200,1261,FALSE,FALSE,USD,USA,,435.6,sqft,,,1.71E+12,,21000,,,,https://photos.zillowstatic.com/fp/3cea0793892ab8292025277069b3a529-p_e.jpg,https://www.zillow.com/homedetails/86-B-St-APT-30-Salt-Lake-City-UT-84103/2061252258_zpid/,230.9278351
12722263,1389 E Military Way,Salt Lake City,UT,84103,40.77239,-111.84788,3500000,6,4,5617,SINGLE_FAMILY,FOR_SALE,-1,3395100,12216,FALSE,FALSE,USD,USA,2789700,0.25,acres,,,,,,,,,https://photos.zillowstatic.com/fp/5edb95fbb23f661cbfbb654949808ea5-p_e.jpg,https://www.zillow.com/homedetails/1389-E-Military-Way-Salt-Lake-City-UT-84103/12722263_zpid/,277.9223969
12776949,2311 S 1700 E,Salt Lake City,UT,84106,40.7207,-111.84154,1150000,4,5,3265,SINGLE_FAMILY,FOR_SALE,-1,1145000,4528,FALSE,FALSE,USD,USA,699900,0.27,acres,,,1.71E+12,"$75,000 (Apr 12)",-75000,,,,https://photos.zillowstatic.com/fp/d4de20efbfd2e3c6e201b1758007bffe-p_e.jpg,https://www.zillow.com/homedetails/2311-S-1700-E-Salt-Lake-City-UT-84106/12776949_zpid/,252.8710247
348242605,4506 S Parkbury Way W,Salt Lake City,UT,84129,40.672405,-111.96018,480000,3,4,2304,TOWNHOUSE,FOR_SALE,-1,,,FALSE,FALSE,USD,USA,,1306.8,sqft,,,,,,TRUE,Sat. 10am-2pm,"[{'open_house_start': 1714237200000, 'open_house_end': 1714251600000}]",https://photos.zillowstatic.com/fp/436bccc1fad6b002716af1e133dab64b-p_e.jpg,https://www.zillow.com/homedetails/4506-S-Parkbury-Way-W-Salt-Lake-City-UT-84129/348242605_zpid/,
348430763,376 E 300 S,Salt Lake City,UT,84111,40.762623,-111.879974,2007000,9,9,5757,MULTI_FAMILY,FOR_SALE,-1,,,FALSE,FALSE,USD,USA,,4356,sqft,,,,,,,,,https://photos.zillowstatic.com/fp/0f7613fb1aab79f9462c2fcccb47caff-p_e.jpg,https://www.zillow.com/homedetails/376-E-300-S-Salt-Lake-City-UT-84111/348430763_zpid/,
82239068,2405 S Red Bur Ct,West Valley City,UT,84119,40.718822,-111.93753,364777,3,3,1125,TOWNHOUSE,FOR_SALE,-1,361900,1949,FALSE,FALSE,USD,USA,307900,1742.4,sqft,,,,,,,,,https://photos.zillowstatic.com/fp/e3532044665bb6830dfe5ddc6aee310f-p_e.jpg,https://www.zillow.com/homedetails/2405-S-Red-Bur-Ct-West-Valley-City-UT-84119/82239068_zpid/,185.6849666
35980040,6307 S Cherry Valley Pl,West Valley City,UT,84118,40.636593,-112.04105,610000,3,5,2806,SINGLE_FAMILY,FOR_SALE,-1,626600,2412,FALSE,FALSE,USD,USA,451000,8276.4,sqft,,,1.71E+12,,100,,,,https://photos.zillowstatic.com/fp/3b3800f08947228667cef260cc2ee339-p_e.jpg,https://www.zillow.com/homedetails/6307-S-Cherry-Valley-Pl-West-Valley-City-UT-84118/35980040_zpid/,259.7844113
12756455,779 S 400 E,Salt Lake City,UT,84111,40.752197,-111.879265,650000,2,4,2314,MULTI_FAMILY,FOR_SALE,-1,637800,1862,FALSE,FALSE,USD,USA,563500,3049.2,sqft,,,,,,,,,https://photos.zillowstatic.com/fp/b73a9763dced5022cd7e66d35ea1f7b3-p_e.jpg,https://www.zillow.com/homedetails/779-S-400-E-Salt-Lake-City-UT-84111/12756455_zpid/,342.5349087
67701248,6852 W Bamburgh Way,West Valley City,UT,84128,40.69797,-112.05469,350000,3,2,1256,TOWNHOUSE,FOR_SALE,-1,347100,1759,FALSE,FALSE,USD,USA,344100,435.6,sqft,,,1.71E+12,"$5,000 (Apr 22)",-5000,TRUE,Sat. 11am-1pm,"[{'open_house_start': 1714240800000, 'open_house_end': 1714248000000}]",https://photos.zillowstatic.com/fp/8d6dc679cd6ba866f5b0de7921c76326-p_e.jpg,https://www.zillow.com/homedetails/6852-W-Bamburgh-Way-West-Valley-City-UT-84128/67701248_zpid/,197.3280273
71671329,848 E Downington Ave,Salt Lake City,UT,84105,40.730415,-111.867,675000,1,3,2172,SINGLE_FAMILY,FOR_SALE,-1,683800,2287,FALSE,FALSE,USD,USA,561600,5662.8,sqft,,,,,,,,,https://photos.zillowstatic.com/fp/48774fa47b9181acc1923dd00c089cdc-p_e.jpg,https://www.zillow.com/homedetails/848-E-Downington-Ave-Salt-Lake-City-UT-84105/71671329_zpid/,298.9943157
2076611021,1180 S Foothill Dr E 722,Salt Lake City,UT,84108,40.742966,-111.82911,425000,2,2,891,CONDO,FOR_SALE,-1,,2100,FALSE,FALSE,USD,USA,,435.6,sqft,,,,,,,,,https://photos.zillowstatic.com/fp/1c0e192d7a1ace40bd94402a15a5abe0-p_e.jpg,https://www.zillow.com/homedetails/1180-S-Foothill-Dr-E-722-Salt-Lake-City-UT-84108/2076611021_zpid/,
120933771,2217 S Belaire Dr,Salt Lake City,UT,84109,40.723003,-111.807755,995900,3,5,2702,MULTI_FAMILY,FOR_SALE,-1,,4395,FALSE,FALSE,USD,USA,797200,6534,sqft,,,,,,,,,https://photos.zillowstatic.com/fp/a695ff571c9ec6a02e9d0f8d76b2347e-p_e.jpg,https://www.zillow.com/homedetails/2217-S-Belaire-Dr-Salt-Lake-City-UT-84109/120933771_zpid/,
341771882,308 W Azure Sky Ln 12,Salt Lake City,UT,84103,40.786087,-111.86956,514900,2,2,1139,TOWNHOUSE,FOR_SALE,-1,511200,2129,FALSE,FALSE,USD,USA,,435.6,sqft,,,1.71E+12,"$6,930 (Mar 22)",-6930,,,,https://photos.zillowstatic.com/fp/798f16f9ed18ee80ebb940eed09da405-p_e.jpg,https://www.zillow.com/homedetails/308-W-Azure-Sky-Ln-12-Salt-Lake-City-UT-84103/341771882_zpid/,240.112729
12724568,3258 S 6320 W,West Valley City,UT,84128,40.700916,-112.04232,579900,3,6,2750,SINGLE_FAMILY,FOR_SALE,-1,592700,2610,FALSE,FALSE,USD,USA,486200,8276.4,sqft,,,1.71E+12,,59900,TRUE,Sun. 12-2pm,"[{'open_house_start': 1714330800000, 'open_house_end': 1714338000000}]",https://photos.zillowstatic.com/fp/bf522a26ca10f7e8029ce05bcffb7c73-p_e.jpg,https://www.zillow.com/homedetails/3258-S-6320-W-West-Valley-City-UT-84128/12724568_zpid/,227.0881226
12736826,627 S 900 W,Salt Lake City,UT,84104,40.755466,-111.91636,354900,1,3,832,SINGLE_FAMILY,FOR_SALE,-1,353600,1834,FALSE,FALSE,USD,USA,278800,4356,sqft,,,1.71E+12,"$5,000 (Apr 18)",-5000,,,,https://photos.zillowstatic.com/fp/fb390138ca5b2c4d732dd43269f3be06-p_e.jpg,https://www.zillow.com/homedetails/627-S-900-W-Salt-Lake-City-UT-84104/12736826_zpid/,192.8026172
12771321,1372 S 300 E,Salt Lake City,UT,84115,40.739933,-111.88293,564900,2,3,1643,SINGLE_FAMILY,FOR_SALE,-1,,2535,FALSE,FALSE,USD,USA,245100,0.25,acres,,,1.71E+12,"$5,000 (Apr 22)",-5000,,,,https://photos.zillowstatic.com/fp/b1001ffbd1a7e93f14d2810770202504-p_e.jpg,https://www.zillow.com/homedetails/1372-S-300-E-Salt-Lake-City-UT-84115/12771321_zpid/,
12765188,2552 E 1700 S,Salt Lake City,UT,84108,40.733295,-111.81732,1175000,2,4,3302,SINGLE_FAMILY,FOR_SALE,-1,1147000,4119,FALSE,FALSE,USD,USA,865800,10018.8,sqft,,,,,,,,,https://photos.zillowstatic.com/fp/eb0edd7252091ca4941e347f4e13a708-p_e.jpg,https://www.zillow.com/homedetails/2552-E-1700-S-Salt-Lake-City-UT-84108/12765188_zpid/,278.465647
11942585,719 W 1500 N,Orem,UT,84057,40.324467,-111.712975,619900,4,5,2749,SINGLE_FAMILY,FOR_SALE,-1,636300,2568,FALSE,FALSE,USD,USA,352200,10018.8,sqft,,,,,,TRUE,Sat. 11am-1pm,"[{'open_house_start': 1714240800000, 'open_house_end': 1714248000000}]",https://photos.zillowstatic.com/fp/bf382228f4f29470127ac8d12cdf7ebd-p_e.jpg,https://www.zillow.com/homedetails/719-W-1500-N-Orem-UT-84057/11942585_zpid/,247.7803738
12757634,247 E Kelsey Ave,Salt Lake City,UT,84111,40.74374,-111.88392,535000,2,3,1666,SINGLE_FAMILY,FOR_SALE,-1,524200,2610,FALSE,FALSE,USD,USA,452100,5227.2,sqft,,,1.71E+12,"$10,000 (Apr 18)",-10000,,,,https://photos.zillowstatic.com/fp/36ba0bc80e02cb769135ed1bdf57f576-p_e.jpg,https://www.zillow.com/homedetails/247-E-Kelsey-Ave-Salt-Lake-City-UT-84111/12757634_zpid/,200.8429119
12739969,167 W Goltz Ave,Salt Lake City,UT,84101,40.745327,-111.89609,354000,1,2,1050,SINGLE_FAMILY,FOR_SALE,-1,347000,1900,FALSE,FALSE,USD,USA,370100,3049.2,sqft,,,1.71E+12,"$5,000 (Apr 11)",-5000,,,,https://photos.zillowstatic.com/fp/b04d5df3a32da1315e1993676413ec39-p_e.jpg,https://www.zillow.com/homedetails/167-W-Goltz-Ave-Salt-Lake-City-UT-84101/12739969_zpid/,182.6315789
2072299169,1298 E Chandler Dr N,Salt Lake City,UT,84103,40.781,-111.850716,1659900,4,5,5959,SINGLE_FAMILY,FOR_SALE,-1,1601000,6646,FALSE,FALSE,USD,USA,,0.71,acres,,,1.71E+12,"$100,000 (Apr 15)",-100000,,,,https://photos.zillowstatic.com/fp/f7e63cb89b1a4a16640cfcfdca1ad988-p_e.jpg,https://www.zillow.com/homedetails/1298-E-Chandler-Dr-N-Salt-Lake-City-UT-84103/2072299169_zpid/,240.89678
12751656,3689 S 1950 W APT 16,West Valley City,UT,84119,40.692207,-111.941444,299000,2,2,960,TOWNHOUSE,FOR_SALE,-1,299100,1595,FALSE,FALSE,USD,USA,248800,435.6,sqft,,,,,,,,,https://photos.zillowstatic.com/fp/35bdc3317265b2863fcab010b11ce169-p_e.jpg,https://www.zillow.com/homedetails/3689-S-1950-W-APT-16-West-Valley-UT-84119/12751656_zpid/,187.523511
12721836,1231 E Chandler Cir,Salt Lake City,UT,84103,40.780586,-111.85277,3200000,4,4,4928,SINGLE_FAMILY,FOR_SALE,-1,3078400,13358,FALSE,FALSE,USD,USA,1619400,0.43,acres,,,,,,,,,https://photos.zillowstatic.com/fp/cb053fd99ea54a800f0ec35b04ead933-p_e.jpg,https://www.zillow.com/homedetails/1231-E-Chandler-Cir-Salt-Lake-City-UT-84103/12721836_zpid/,230.4536607
2071425498,176 S Ellis Dr,Orem,UT,84097,40.29337,-111.67926,460000,3,5,2187,SINGLE_FAMILY,FOR_SALE,-1,471500,2299,FALSE,FALSE,USD,USA,,10018.8,sqft,,,1.71E+12,"$15,000 (Apr 22)",-15000,,,,https://photos.zillowstatic.com/fp/589ac466c219c790cc8920d990c911c8-p_e.jpg,https://www.zillow.com/homedetails/176-S-Ellis-Dr-Orem-UT-84097/2071425498_zpid/,205.0891692
69225233,964 E 300 S,Salt Lake City,UT,84102,40.762493,-111.86324,375000,1,2,802,SINGLE_FAMILY,FOR_SALE,-1,375100,1623,FALSE,FALSE,USD,USA,362800,4791.6,sqft,,,,,,,,,https://photos.zillowstatic.com/fp/f01f5e619c228330409dfd6cc270783d-p_e.jpg,https://www.zillow.com/homedetails/964-E-300-S-Salt-Lake-City-UT-84102/69225233_zpid/,231.1152187
341197551,632 N Oakley St W C 203,Salt Lake City,UT,84116,40.782883,-111.92635,237400,1,2,916,CONDO,FOR_SALE,-1,238300,1474,FALSE,FALSE,USD,USA,,435.6,sqft,,,,,,,,,https://photos.zillowstatic.com/fp/a1c0ae3ed428b0b1be399225214ac1d3-p_e.jpg,https://www.zillow.com/homedetails/632-N-Oakley-St-W-C-203-Salt-Lake-City-UT-84116/341197551_zpid/,161.6689281
12768802,1954 E Ramona Ave,Salt Lake City,UT,84108,40.728123,-111.8348,769000,2,4,1968,SINGLE_FAMILY,FOR_SALE,-1,781100,3204,FALSE,FALSE,USD,USA,647200,6098.4,sqft,,,,,,,,,https://photos.zillowstatic.com/fp/659631bc5f54a83050591b08fdd02d75-p_e.jpg,https://www.zillow.com/homedetails/1954-E-Ramona-Ave-Salt-Lake-City-UT-84108/12768802_zpid/,243.7890137
347340008,1146 S Redwood Rd C302,Salt Lake City,UT,84104,40.7441,-111.93901,356200,3,2,1259,TOWNHOUSE,FOR_SALE,-1,357600,1999,FALSE,FALSE,USD,USA,,435.6,sqft,TRUE,NEW_CONSTRUCTION_TYPE_OTHER,1.71E+12,,3000,,,,https://photos.zillowstatic.com/fp/ae5bda5adbff2357592629636571a78e-p_e.jpg,https://www.zillow.com/homedetails/1146-S-Redwood-Rd-C302-Salt-Lake-City-UT-84104/347340008_zpid/,178.8894447
12768093,1545 E 2100 S,Salt Lake City,UT,84105,40.726135,-111.846565,675000,2,3,1908,SINGLE_FAMILY,FOR_SALE,-1,657300,2784,FALSE,FALSE,USD,USA,573100,5227.2,sqft,,,1.71E+12,"$10,000 (Apr 8)",-10000,,,,https://photos.zillowstatic.com/fp/f46e9177156d4c9a9aac034a83d04b74-p_e.jpg,https://www.zillow.com/homedetails/1545-E-2100-S-Salt-Lake-City-UT-84105/12768093_zpid/,236.0991379
12771073,1917 S 1100 E,Salt Lake City,UT,84105,40.728516,-111.859276,890000,3,5,2332,SINGLE_FAMILY,FOR_SALE,-1,901000,3224,FALSE,FALSE,USD,USA,555500,7840.8,sqft,,,,,,,,,https://photos.zillowstatic.com/fp/f5aec845ece92bf6354bd9375d634a27-p_e.jpg,https://www.zillow.com/homedetails/1917-S-1100-E-Salt-Lake-City-UT-84105/12771073_zpid/,279.4665012
63341287,336 W 300 S 215,Salt Lake City,UT,84101,40.763344,-111.90102,375000,1,1,531,CONDO,FOR_SALE,-1,,1400,FALSE,FALSE,USD,USA,307500,435.6,sqft,,,,,,,,,https://photos.zillowstatic.com/fp/0a8ae20254c1df1fb8bf9ab4c0701ddb-p_e.jpg,https://www.zillow.com/homedetails/336-W-300-S-215-Salt-Lake-City-UT-84101/63341287_zpid/,
12717942,680 N Eastcapitol Blvd,Salt Lake City,UT,84103,40.78381,-111.885445,2200000,3,3,3042,SINGLE_FAMILY,FOR_SALE,-1,2140300,6005,FALSE,FALSE,USD,USA,1248900,5227.2,sqft,,,1.71E+12,"$300,000 (Apr 17)",-300000,,,,https://photos.zillowstatic.com/fp/07429b0020abd37fb30920a95060ede9-p_e.jpg,https://www.zillow.com/homedetails/680-N-Eastcapitol-Blvd-Salt-Lake-City-UT-84103/12717942_zpid/,356.4196503
12764680,1567 S 2100 E,Salt Lake City,UT,84108,40.73553,-111.830475,850000,2,3,1720,SINGLE_FAMILY,FOR_SALE,-1,866300,2800,FALSE,FALSE,USD,USA,610900,5662.8,sqft,,,,,,,,,https://photos.zillowstatic.com/fp/fff0b3e4cb9b1680dee25905d4c70da8-p_e.jpg,https://www.zillow.com/homedetails/1567-S-2100-E-Salt-Lake-City-UT-84108/12764680_zpid/,309.3928571
346268700,1219 E S Temple,Salt Lake City,UT,84102,40.769356,-111.856,2800000,4,4,5129,SINGLE_FAMILY,FOR_SALE,-1,2794400,6000,FALSE,FALSE,USD,USA,,0.25,acres,,,,,,TRUE,Sat. 11am-1pm,"[{'open_house_start': 1714240800000, 'open_house_end': 1714248000000}]",https://photos.zillowstatic.com/fp/4910058148c516b0c75d6da99593d3be-p_e.jpg,https://www.zillow.com/homedetails/1219-E-S-Temple-Salt-Lake-City-UT-84102/346268700_zpid/,465.7333333
72630843,5652 W Piney Ridge Dr,Salt Lake City,UT,84118,40.658897,-112.0259,690000,4,5,3938,SINGLE_FAMILY,FOR_SALE,-1,688600,3900,FALSE,FALSE,USD,USA,596800,7840.8,sqft,,,,,,,,,https://photos.zillowstatic.com/fp/10ceac171250d924a2df0131f1df8603-p_e.jpg,https://www.zillow.com/homedetails/5652-W-Piney-Ridge-Dr-Salt-Lake-City-UT-84118/72630843_zpid/,176.5641026
12756666,350 E 700 S 309,Salt Lake City,UT,84111,40.753548,-111.88129,285000,2,3,970,CONDO,FOR_SALE,-1,279500,1895,FALSE,FALSE,USD,USA,252400,,,,,1.71E+12,"$14,000 (Apr 16)",-14000,,,,https://photos.zillowstatic.com/fp/80b62c0e980d7b13cacefa070d2133a9-p_e.jpg,https://www.zillow.com/homedetails/350-E-700-S-309-Salt-Lake-City-UT-84111/12756666_zpid/,147.4934037
2071958143,1761 E Michigan Ave S,Salt Lake City,UT,84108,40.748047,-111.840324,2390000,4,5,5230,SINGLE_FAMILY,FOR_SALE,-1,2406800,5350,FALSE,FALSE,USD,USA,,7840.8,sqft,,,,,,,,,https://photos.zillowstatic.com/fp/88758331994c550dd6c70213464031e0-p_e.jpg,https://www.zillow.com/homedetails/1761-E-Michigan-Ave-S-Salt-Lake-City-UT-84108/2071958143_zpid/,449.8691589
12720941,688 E 1st Ave,Salt Lake City,UT,84103,40.77033,-111.86881,850000,2,5,2894,SINGLE_FAMILY,FOR_SALE,-1,841700,3900,FALSE,FALSE,USD,USA,682700,3920.4,sqft,,,,,,,,,https://photos.zillowstatic.com/fp/af7a1969f8218d0b9ddef98f7267c03d-p_e.jpg,https://www.zillow.com/homedetails/688-E-1st-Ave-Salt-Lake-City-UT-84103/12720941_zpid/,215.8205128
2110240604,1321 S 1200 W,Orem,UT,84058,40.273083,-111.72367,285000,1,2,997,CONDO,FOR_SALE,-1,284900,1394,FALSE,FALSE,USD,USA,,871.2,sqft,,,,,,,,,https://photos.zillowstatic.com/fp/ba7bc4f5bb8612c7472b1f0fe56a1d04-p_e.jpg,https://www.zillow.com/homedetails/1321-S-1200-W-Orem-UT-84058/2110240604_zpid/,204.3758967
12779717,2145 S Belaire Dr,Salt Lake City,UT,84109,40.724457,-111.80668,1100000,3,4,2692,SINGLE_FAMILY,FOR_SALE,-1,,,FALSE,FALSE,USD,USA,889300,9147.6,sqft,,,1.71E+12,"$95,000 (Apr 25)",-95000,TRUE,Sat. 11am-2pm,"[{'open_house_start': 1714240800000, 'open_house_end': 1714251600000}]",https://photos.zillowstatic.com/fp/573ba67672078a7b09ff281df9ffcf31-p_e.jpg,https://www.zillow.com/homedetails/2145-S-Belaire-Dr-Salt-Lake-City-UT-84109/12779717_zpid/,
12776088,2469 S Highland Dr,Salt Lake City,UT,84106,40.71796,-111.856415,950000,4,5,2989,SINGLE_FAMILY,FOR_SALE,-1,965800,3204,FALSE,FALSE,USD,USA,765900,5662.8,sqft,,,1.71E+12,,250100,,,,https://photos.zillowstatic.com/fp/d5f711304145723074b296fe7c4be33b-p_e.jpg,https://www.zillow.com/homedetails/2469-S-Highland-Dr-Salt-Lake-City-UT-84106/12776088_zpid/,301.4357054
12723719,5261 W Sunshine Dr,West Valley City,UT,84120,40.697575,-112.01679,579999,4,7,3400,SINGLE_FAMILY,FOR_SALE,-1,572200,3325,FALSE,FALSE,USD,USA,475300,9147.6,sqft,,,1.71E+12,"$19,001 (Apr 25)",-19001,,,,https://photos.zillowstatic.com/fp/181b40cecfc9629ebe65faf2f8b3fd43-p_e.jpg,https://www.zillow.com/homedetails/5261-W-Sunshine-Dr-West-Valley-City-UT-84120/12723719_zpid/,172.0902256
12813461,4350 S 3760 W,West Valley City,UT,84120,40.67608,-111.9811,400000,1,3,1232,SINGLE_FAMILY,FOR_SALE,-1,401700,1638,FALSE,FALSE,USD,USA,281700,7840.8,sqft,,,1.71E+12,"$25,000 (Apr 23)",-25000,,,,https://photos.zillowstatic.com/fp/da8cd66b31bec153a32cf384eb786cd2-p_e.jpg,https://www.zillow.com/homedetails/4350-S-3760-W-West-Valley-City-UT-84120/12813461_zpid/,245.2380952
2055233843,3884 S Treasure Isle Rd 221,West Valley City,UT,84119,40.687393,-111.953026,775000,3,3,4244,SINGLE_FAMILY,FOR_SALE,-1,777300,3997,FALSE,FALSE,USD,USA,,0.26,acres,,,1.71E+12,"$5,000 (Apr 17)",-5000,,,,https://photos.zillowstatic.com/fp/7347b50f1c738e3cf63eee79efc3775c-p_e.jpg,https://www.zillow.com/homedetails/3884-S-Treasure-Isle-Rd-221-West-Valley-City-UT-84119/2055233843_zpid/,194.4708531
12746695,3125 S 4300 W,West Valley City,UT,84120,40.703423,-111.99352,364999,1,3,928,SINGLE_FAMILY,FOR_SALE,-1,356000,1962,FALSE,FALSE,USD,USA,281700,6969.6,sqft,,,1.70E+12,,-1,,,,https://photos.zillowstatic.com/fp/1e7c4e680a475bdbe21233e80774b801-p_e.jpg,https://www.zillow.com/homedetails/3125-S-4300-W-West-Valley-City-UT-84120/12746695_zpid/,181.4475025
12779578,2186 S Wasatch Dr,Salt Lake City,UT,84109,40.723724,-111.81301,650000,3,3,2802,TOWNHOUSE,FOR_SALE,-1,659200,2594,FALSE,FALSE,USD,USA,523700,5227.2,sqft,,,,,,TRUE,Sat. 10am-12pm,"[{'open_house_start': 1714237200000, 'open_house_end': 1714244400000}]",https://photos.zillowstatic.com/fp/c1d37eaf2b00b42359f3020c9cf819e6-p_e.jpg,https://www.zillow.com/homedetails/2186-S-Wasatch-Dr-Salt-Lake-City-UT-84109/12779578_zpid/,254.1249036
12714745,345 N 1200 W,Salt Lake City,UT,84116,40.777107,-111.92592,399000,2,4,1500,SINGLE_FAMILY,FOR_SALE,-1,396500,2550,FALSE,FALSE,USD,USA,325500,7405.2,sqft,,,1.71E+12,"$20,000 (Apr 17)",-20000,,,,https://photos.zillowstatic.com/fp/1999edac98cf11053dd6b38d01719ef8-p_e.jpg,https://www.zillow.com/homedetails/345-N-1200-W-Salt-Lake-City-UT-84116/12714745_zpid/,155.4901961
12757095,341 E Hubbard Ave,Salt Lake City,UT,84111,40.748928,-111.88124,750000,3,7,2996,SINGLE_FAMILY,FOR_SALE,-1,754700,2290,FALSE,FALSE,USD,USA,505800,6098.4,sqft,,,,,,,,,https://photos.zillowstatic.com/fp/43a45afa3af6516f5f5cd56946bb9997-p_e.jpg,https://www.zillow.com/homedetails/341-E-Hubbard-Ave-Salt-Lake-City-UT-84111/12757095_zpid/,329.5633188
12798433,5257 W Conewood St,West Valley City,UT,84120,40.67069,-112.01649,449000,1,3,1420,SINGLE_FAMILY,FOR_SALE,-1,447200,1800,FALSE,FALSE,USD,USA,363300,8712,sqft,,,1.71E+12,"$16,000 (Apr 18)",-16000,,,,https://photos.zillowstatic.com/fp/f79622bd950fcc8dda2fb18be37d08e7-p_e.jpg,https://www.zillow.com/homedetails/5257-W-Conewood-St-West-Valley-City-UT-84120/12798433_zpid/,248.4444444
12777017,2328 S Wellington St,Salt Lake City,UT,84106,40.720238,-111.83874,2750000,5,3,6277,SINGLE_FAMILY,FOR_SALE,-1,2665300,10422,FALSE,FALSE,USD,USA,2169600,0.3,acres,,,,,,,,,https://photos.zillowstatic.com/fp/6186cfabba9871bb827292a143dc405e-p_e.jpg,https://www.zillow.com/homedetails/2328-S-Wellington-St-Salt-Lake-City-UT-84106/12777017_zpid/,255.7378622
12775175,2228 S Lake St,Salt Lake City,UT,84106,40.722385,-111.87008,949000,2,4,3500,SINGLE_FAMILY,FOR_SALE,-1,,,FALSE,FALSE,USD,USA,694800,10454.4,sqft,,,,,,,,,https://photos.zillowstatic.com/fp/c54ca696f0e27a17cab5f7f4b41d5d0b-p_e.jpg,https://www.zillow.com/homedetails/2228-S-Lake-St-Salt-Lake-City-UT-84106/12775175_zpid/,
11934038,843 N 75 E,Orem,UT,84057,40.31265,-111.69387,459000,2,4,1440,SINGLE_FAMILY,FOR_SALE,-1,475200,1975,FALSE,FALSE,USD,USA,230100,6534,sqft,,,1.71E+12,,9000,,,,https://photos.zillowstatic.com/fp/61ec9f8069eb1e63258d8f5351af748d-p_e.jpg,https://www.zillow.com/homedetails/843-N-75-E-Orem-UT-84057/11934038_zpid/,240.6075949
12769866,1231 E Emerson Ave,Salt Lake City,UT,84105,40.73759,-111.855865,949900,4,4,3624,SINGLE_FAMILY,FOR_SALE,-1,936700,3840,FALSE,FALSE,USD,USA,893700,4791.6,sqft,,,,,,,,,https://photos.zillowstatic.com/fp/c9aefe62df1798cdf2ccc86ce6785346-p_e.jpg,https://www.zillow.com/homedetails/1231-E-Emerson-Ave-Salt-Lake-City-UT-84105/12769866_zpid/,243.9322917
12736691,866 W Pacific Ave,Salt Lake City,UT,84104,40.75973,-111.91616,400000,2,3,1326,SINGLE_FAMILY,FOR_SALE,-1,393100,1996,FALSE,FALSE,USD,USA,401300,3049.2,sqft,,,1.71E+12,"$29,000 (Apr 9)",-29000,,,,https://photos.zillowstatic.com/fp/dc29b4263d32f33faa68fb9ee351a573-p_e.jpg,https://www.zillow.com/homedetails/866-W-Pacific-Ave-Salt-Lake-City-UT-84104/12736691_zpid/,196.9438878
61167438,3230 S 1510 W UNIT 6C,West Valley City,UT,84119,40.701546,-111.93451,328000,2,2,855,TOWNHOUSE,FOR_SALE,-1,324200,1594,FALSE,FALSE,USD,USA,284800,435.6,sqft,,,1.71E+12,"$7,000 (Apr 18)",-7000,,,,https://photos.zillowstatic.com/fp/3ce5289975a1c0c669bcffe8e4478f49-p_e.jpg,https://www.zillow.com/homedetails/3230-S-1510-W-UNIT-6C-West-Valley-UT-84119/61167438_zpid/,203.3877039
82730990,1343 S 1100 E,Orem,UT,84097,40.2723,-111.66865,7800000,9,4,13564,SINGLE_FAMILY,FOR_SALE,-1,,16966,FALSE,FALSE,USD,USA,3140500,0.84,acres,,,1.69E+12,,1650000,,,,https://photos.zillowstatic.com/fp/8ea6977b4e5e79386db2e200fcdd5b5c-p_e.jpg,https://www.zillow.com/homedetails/1343-S-1100-E-Orem-UT-84097/82730990_zpid/,
12763878,2784 E Lancaster Dr,Salt Lake City,UT,84108,40.737396,-111.811195,1500000,3,3,5046,SINGLE_FAMILY,FOR_SALE,-1,1483600,5810,FALSE,FALSE,USD,USA,1061400,0.34,acres,,,,,,,,,https://photos.zillowstatic.com/fp/671c9c60b0e6b3d368c37004397d3561-p_e.jpg,https://www.zillow.com/homedetails/2784-E-Lancaster-Dr-Salt-Lake-City-UT-84108/12763878_zpid/,255.3528399
12732008,3819 S 6620 W,West Valley City,UT,84128,40.689014,-112.04885,480000,2,5,2340,SINGLE_FAMILY,FOR_SALE,-1,489500,2394,FALSE,FALSE,USD,USA,383800,7840.8,sqft,,,,,,,,,https://photos.zillowstatic.com/fp/b2201907cd2a844ad505bb7ebd0638e8-p_e.jpg,https://www.zillow.com/homedetails/3819-S-6620-W-West-Valley-City-UT-84128/12732008_zpid/,204.4695071
12771252,25 E Cleveland Ave,Salt Lake City,UT,84115,40.7385,-111.8901,385000,1,2,648,SINGLE_FAMILY,FOR_SALE,-1,374300,1366,FALSE,FALSE,USD,USA,280600,1742.4,sqft,,,1.70E+12,,-10000,,,,https://photos.zillowstatic.com/fp/fa7efa8af24c4a01bcc2dd62bc6127cb-p_e.jpg,https://www.zillow.com/homedetails/25-E-Cleveland-Ave-Salt-Lake-City-UT-84115/12771252_zpid/,274.011713
11946358,686 N 600 W,Orem,UT,84057,40.30978,-111.70998,442000,2,4,1232,SINGLE_FAMILY,FOR_SALE,-1,432800,1925,FALSE,FALSE,USD,USA,182200,7840.8,sqft,,,1.71E+12,"$7,500 (Apr 23)",-7500,,,,https://photos.zillowstatic.com/fp/f513a9fdfa6cd5ce9004c9976e176aef-p_e.jpg,https://www.zillow.com/homedetails/686-N-600-W-Orem-UT-84057/11946358_zpid/,224.8311688
12710282,1228 N Nocturne Dr,Salt Lake City,UT,84116,40.79559,-111.92263,399900,2,3,1332,SINGLE_FAMILY,FOR_SALE,-1,,2129,FALSE,FALSE,USD,USA,324700,6098.4,sqft,,,1.71E+12,"$10,000 (Mar 28)",-10000,,,,https://photos.zillowstatic.com/fp/41fc91de12643dceaea9edd82e64c471-p_e.jpg,https://www.zillow.com/homedetails/1228-N-Nocturne-Dr-Salt-Lake-City-UT-84116/12710282_zpid/,
12766242,1945 S 2600 E,Salt Lake City,UT,84108,40.727947,-111.81576,850000,2,4,2649,SINGLE_FAMILY,FOR_SALE,-1,814700,3711,FALSE,FALSE,USD,USA,713700,10018.8,sqft,,,,,,,,,https://photos.zillowstatic.com/fp/00670648e5275b1beb42e4a3087c2dd4-p_e.jpg,https://www.zillow.com/homedetails/1945-S-2600-E-Salt-Lake-City-UT-84108/12766242_zpid/,219.5365131
12720741,267 N M St,Salt Lake City,UT,84103,40.775593,-111.86595,924500,2,4,2249,SINGLE_FAMILY,FOR_SALE,-1,899800,3419,FALSE,FALSE,USD,USA,408200,8276.4,sqft,,,1.71E+12,"$25,071 (Mar 29)",-25071,,,,https://photos.zillowstatic.com/fp/06f02e9bf95455febefaaed2b273fd09-p_e.jpg,https://www.zillow.com/homedetails/267-N-M-St-Salt-Lake-City-UT-84103/12720741_zpid/,263.1763674
2071444596,4067 W Wendy Ave S,West Valley City,UT,84120,40.707047,-111.98827,484900,2,3,1996,SINGLE_FAMILY,FOR_SALE,-1,493500,1222,FALSE,FALSE,USD,USA,,6098.4,sqft,,,,,,,,,https://photos.zillowstatic.com/fp/8d562fccebabe2fc31bc820fd74dfdb9-p_e.jpg,https://www.zillow.com/homedetails/4067-W-Wendy-Ave-S-West-Valley-City-UT-84120/2071444596_zpid/,403.8461538
2068452217,48 W Broadway APT 1401,Salt Lake City,UT,84101,40.7632,-111.892685,539900,2,2,1506,CONDO,FOR_SALE,-1,542500,2280,FALSE,FALSE,USD,USA,,435.6,sqft,,,,,,,,,https://photos.zillowstatic.com/fp/e2312a123974d540491e89671c50cadb-p_e.jpg,https://www.zillow.com/homedetails/48-W-Broadway-APT-1401-Salt-Lake-City-UT-84101/2068452217_zpid/,237.9385965
12772824,339 E Wilson Ave,Salt Lake City,UT,84115,40.732483,-111.88119,423500,1,3,1215,SINGLE_FAMILY,FOR_SALE,-1,418800,2400,FALSE,FALSE,USD,USA,304600,3484.8,sqft,,,1.71E+12,"$1,500 (Apr 15)",-1500,,,,https://photos.zillowstatic.com/fp/1562f97c15a9e2b1d0e927329303a57e-p_e.jpg,https://www.zillow.com/homedetails/339-E-Wilson-Ave-Salt-Lake-City-UT-84115/12772824_zpid/,174.5
61166845,2984 S Dove Tail Dr,West Valley City,UT,84128,40.70602,-112.059074,630000,3,6,3751,SINGLE_FAMILY,FOR_SALE,-1,633100,2612,FALSE,FALSE,USD,USA,497100,7840.8,sqft,,,,,,,,,https://photos.zillowstatic.com/fp/d1dd418cb902f7cd94db488f75008cde-p_e.jpg,https://www.zillow.com/homedetails/2984-S-Dove-Tail-Dr-West-Valley-City-UT-84128/61166845_zpid/,242.381317
2071372341,1125 W Arapahoe Ave S,Salt Lake City,UT,84104,40.754837,-111.92324,499999,2,4,1836,MULTI_FAMILY,FOR_SALE,-1,514700,1098,FALSE,FALSE,USD,USA,,6098.4,sqft,,,,,,,,,https://photos.zillowstatic.com/fp/a656866b5d09073074973a543e74b216-p_e.jpg,https://www.zillow.com/homedetails/1125-W-Arapahoe-Ave-S-Salt-Lake-City-UT-84104/2071372341_zpid/,468.7613843
12758719,721 S McClelland St,Salt Lake City,UT,84102,40.753403,-111.86041,810000,3,3,2607,SINGLE_FAMILY,FOR_SALE,-1,794200,3475,FALSE,FALSE,USD,USA,761200,7405.2,sqft,,,,,,,,,https://photos.zillowstatic.com/fp/8eb71a9ba2d5c287a14097ff0863d503-p_e.jpg,https://www.zillow.com/homedetails/721-S-McClelland-St-Salt-Lake-City-UT-84102/12758719_zpid/,228.5467626
12717471,1302 N Oak Forest Rd,Salt Lake City,UT,84103,40.798176,-111.882286,3400000,5,5,7322,SINGLE_FAMILY,FOR_SALE,-1,3123500,11700,FALSE,FALSE,USD,USA,3031290,2,acres,,,1.71E+12,"$100,000 (Feb 28)",-100000,,,,https://photos.zillowstatic.com/fp/66d388add03053740fd2f880a8d1f7da-p_e.jpg,https://www.zillow.com/homedetails/1302-N-Oak-Forest-Rd-Salt-Lake-City-UT-84103/12717471_zpid/,266.965812
89421897,415 E 300 S APT 2,Salt Lake City,UT,84111,40.763115,-111.87905,410000,2,2,864,CONDO,FOR_SALE,-1,403700,1797,FALSE,FALSE,USD,USA,370700,435.6,sqft,,,,,,,,,https://photos.zillowstatic.com/fp/1c2acb5040165d0509a6e437936a02c5-p_e.jpg,https://www.zillow.com/homedetails/415-E-300-S-APT-2-Salt-Lake-City-UT-84111/89421897_zpid/,224.6521981
89418613,963 E 800 S APT 106,Salt Lake City,UT,84102,40.752277,-111.86317,369999,2,2,967,CONDO,FOR_SALE,-1,357900,1709,FALSE,FALSE,USD,USA,392400,435.6,sqft,,,1.71E+12,"$20,000 (Mar 26)",-20000,,,,https://photos.zillowstatic.com/fp/ef6846494b4b7183d537918b3bae8ce7-p_e.jpg,https://www.zillow.com/homedetails/963-E-800-S-APT-106-Salt-Lake-City-UT-84102/89418613_zpid/,209.4207139
2072635338,735 N Oakley St W,Salt Lake City,UT,84116,40.78553,-111.926796,532000,2,4,1536,SINGLE_FAMILY,FOR_SALE,-1,553300,2550,FALSE,FALSE,USD,USA,,5227.2,sqft,,,1.71E+12,"$5,000 (Apr 25)",-5000,,,,https://photos.zillowstatic.com/fp/79d73c20a5d6ea53a96ce3a665cb6521-p_e.jpg,https://www.zillow.com/homedetails/735-N-Oakley-St-W-Salt-Lake-City-UT-84116/2072635338_zpid/,216.9803922
118556251,1715 S Soleil Cv,Salt Lake City,UT,84108,40.7332,-111.828064,2150000,4,5,5275,SINGLE_FAMILY,FOR_SALE,-1,2102700,8018,FALSE,FALSE,USD,USA,1984400,7405.2,sqft,,,,,,,,,https://photos.zillowstatic.com/fp/12946a3a8353eff5ad037983b7e1d0c8-p_e.jpg,https://www.zillow.com/homedetails/1715-S-Soleil-Cv-Salt-Lake-City-UT-84108/118556251_zpid/,262.2474433
12711201,1273 W Lafayette Dr,Salt Lake City,UT,84116,40.784573,-111.9277,480000,2,3,1768,SINGLE_FAMILY,FOR_SALE,-1,499700,1936,FALSE,FALSE,USD,USA,381300,7405.2,sqft,,,,,,,,,https://photos.zillowstatic.com/fp/24891514a9aea32e05b8a6ec6ea95ebc-p_e.jpg,https://www.zillow.com/homedetails/1273-W-Lafayette-Dr-Salt-Lake-City-UT-84116/12711201_zpid/,258.1095041
52835182,6416 S High Bluff Dr,Salt Lake City,UT,84118,40.63427,-112.04188,555000,2,4,2602,SINGLE_FAMILY,FOR_SALE,-1,569000,2600,FALSE,FALSE,USD,USA,465300,7840.8,sqft,,,,,,,,,https://photos.zillowstatic.com/fp/be1bb1ec6730613af19587126a609108-p_e.jpg,https://www.zillow.com/homedetails/6416-S-High-Bluff-Dr-Salt-Lake-City-UT-84118/52835182_zpid/,218.8461538
11945797,554 S 70 E,Orem,UT,84058,40.28691,-111.69404,475000,3,4,2648,MULTI_FAMILY,FOR_SALE,-1,466600,2495,FALSE,FALSE,USD,USA,291800,2178,sqft,,,1.71E+12,"$15,000 (Apr 17)",-15000,,,,https://photos.zillowstatic.com/fp/b337486c346d3c538549a81681573a68-p_e.jpg,https://www.zillow.com/homedetails/554-S-70-E-Orem-UT-84058/11945797_zpid/,187.0140281
68830913,520 W 10 N,Orem,UT,84057,40.297516,-111.70802,499000,3,4,3182,MULTI_FAMILY,FOR_SALE,-1,500700,2218,FALSE,FALSE,USD,USA,337200,435.6,sqft,,,1.71E+12,"$20,000 (Apr 22)",-20000,,,,https://photos.zillowstatic.com/fp/94d7a9cf28938ca303d91045c26277ef-p_e.jpg,https://www.zillow.com/homedetails/520-W-10-N-Orem-UT-84057/68830913_zpid/,225.7439134
12715198,435 N 900 W,Salt Lake City,UT,84116,40.778877,-111.917366,519900,3,4,1602,SINGLE_FAMILY,FOR_SALE,-1,528500,2192,FALSE,FALSE,USD,USA,226900,5662.8,sqft,,,,,,,,,https://photos.zillowstatic.com/fp/b6ef1e301af29f34dd3615473cc57964-p_e.jpg,https://www.zillow.com/homedetails/435-N-900-W-Salt-Lake-City-UT-84116/12715198_zpid/,241.1040146
12721957,1304 E Federal Heights Dr,Salt Lake City,UT,84103,40.77451,-111.85049,1950000,7,7,6544,SINGLE_FAMILY,FOR_SALE,-1,1867500,10844,FALSE,FALSE,USD,USA,2221600,0.32,acres,,,1.71E+12,"$50,000 (Apr 9)",-50000,,,,https://photos.zillowstatic.com/fp/01089d036caffc37b1c9a95888ff16b5-p_e.jpg,https://www.zillow.com/homedetails/1304-E-Federal-Heights-Dr-Salt-Lake-City-UT-84103/12721957_zpid/,172.2150498
12766912,1461 E 1700 S,Salt Lake City,UT,84105,40.733734,-111.84896,710000,2,3,1738,SINGLE_FAMILY,FOR_SALE,-1,685300,2724,FALSE,FALSE,USD,USA,518000,6534,sqft,,,1.71E+12,"$19,000 (Mar 28)",-19000,,,,https://photos.zillowstatic.com/fp/4869985c3899c41d43dd607f30ee25e0-p_e.jpg,https://www.zillow.com/homedetails/1461-E-1700-S-Salt-Lake-City-UT-84105/12766912_zpid/,251.5785609
2071376481,2357 S Green St E,Salt Lake City,UT,84106,40.71953,-111.872154,495000,1,3,1886,SINGLE_FAMILY,FOR_SALE,-1,486000,2199,FALSE,FALSE,USD,USA,,4791.6,sqft,,,1.70E+12,,-11000,,,,https://photos.zillowstatic.com/fp/6e8dfc9752c4eb77fc128af2919b5b65-p_e.jpg,https://www.zillow.com/homedetails/2357-S-Green-St-E-Salt-Lake-City-UT-84106/2071376481_zpid/,221.0095498
12738899,871 S 800 W,Salt Lake City,UT,84104,40.750145,-111.91356,375000,1,2,1030,SINGLE_FAMILY,FOR_SALE,-1,371600,1949,FALSE,FALSE,USD,USA,290600,2178,sqft,,,,,,,,,https://photos.zillowstatic.com/fp/0ec1759e5d403b19e554fa7a42b6000c-p_e.jpg,https://www.zillow.com/homedetails/871-S-800-W-Salt-Lake-City-UT-84104/12738899_zpid/,190.6618779
2059928380,3002 S Kapford Dr,West Valley City,UT,84128,40.70574,-112.04302,450000,2,4,1672,SINGLE_FAMILY,FOR_SALE,-1,454700,2297,FALSE,FALSE,USD,USA,,7840.8,sqft,,,,,,,,,https://photos.zillowstatic.com/fp/350b4082a65f62da9cb1a979a1ecd811-p_e.jpg,https://www.zillow.com/homedetails/3002-S-Kapford-Dr-West-Valley-City-UT-84128/2059928380_zpid/,197.9538529
12762695,2034 E 1300 S,Salt Lake City,UT,84108,40.741425,-111.832466,1239900,4,6,4278,SINGLE_FAMILY,FOR_SALE,-1,1193600,4963,FALSE,FALSE,USD,USA,1104400,7405.2,sqft,,,1.71E+12,"$55,100 (Apr 19)",-55100,,,,https://photos.zillowstatic.com/fp/c6197b66498c2c890547fa8f53a6b10c-p_e.jpg,https://www.zillow.com/homedetails/2034-E-1300-S-Salt-Lake-City-UT-84108/12762695_zpid/,240.4996978
12769413,830 E Kensington Ave,Salt Lake City,UT,84105,40.73615,-111.86719,849700,3,4,2019,SINGLE_FAMILY,FOR_SALE,-1,860800,2706,FALSE,FALSE,USD,USA,608400,4356,sqft,,,,,,,,,https://photos.zillowstatic.com/fp/718afddf8ef3b0330a1f4d15d77b1bbb-p_e.jpg,https://www.zillow.com/homedetails/830-E-Kensington-Ave-Salt-Lake-City-UT-84105/12769413_zpid/,318.1079084
305058231,938 E Herbert Ave,Salt Lake City,UT,84105,40.74631,-111.864334,700000,3,6,2324,MULTI_FAMILY,FOR_SALE,-1,696600,3478,FALSE,FALSE,USD,USA,484100,4356,sqft,,,,,,,,,https://photos.zillowstatic.com/fp/76fccf43220d87c96a8093c8bbf62742-p_e.jpg,https://www.zillow.com/homedetails/938-E-Herbert-Ave-Salt-Lake-City-UT-84105/305058231_zpid/,200.2875216
12771287,1410 S 200 E,Salt Lake City,UT,84115,40.738937,-111.88578,795000,3,4,2184,SINGLE_FAMILY,FOR_SALE,-1,810500,2315,FALSE,FALSE,USD,USA,408500,6969.6,sqft,,,,,,,,,https://photos.zillowstatic.com/fp/469298f1f40995a51ecc1ecafde76276-p_e.jpg,https://www.zillow.com/homedetails/1410-S-200-E-Salt-Lake-City-UT-84115/12771287_zpid/,350.1079914
12758503,962 S Lake St,Salt Lake City,UT,84105,40.748306,-111.87002,634900,1,3,2047,SINGLE_FAMILY,FOR_SALE,-1,602200,2354,FALSE,FALSE,USD,USA,481800,5662.8,sqft,,,1.71E+12,$100 (Apr 23),-100,,,,https://photos.zillowstatic.com/fp/5c337dd7ff936f4f806dba5b8fb12622-p_e.jpg,https://www.zillow.com/homedetails/962-S-Lake-St-Salt-Lake-City-UT-84105/12758503_zpid/,255.8198811
12760956,1419 E Harvard Ave,Salt Lake City,UT,84105,40.744648,-111.850845,3199000,4,5,4864,SINGLE_FAMILY,FOR_SALE,-1,,12220,FALSE,FALSE,USD,USA,1864900,0.25,acres,,,,,,,,,https://photos.zillowstatic.com/fp/2eee48c9450a9c959bce8f001bcfda23-p_e.jpg,https://www.zillow.com/homedetails/1419-E-Harvard-Ave-Salt-Lake-City-UT-84105/12760956_zpid/,
241987619,1081 W 993 N UNIT 401,Orem,UT,84057,40.315407,-111.72253,290000,1,2,850,CONDO,FOR_SALE,-1,291400,1250,FALSE,FALSE,USD,USA,169500,871.2,sqft,,,,,,,,,https://photos.zillowstatic.com/fp/80f7528e70398a9d3df68c6928f97074-p_e.jpg,https://www.zillow.com/homedetails/1081-W-993-N-UNIT-401-Orem-UT-84057/241987619_zpid/,233.12
11929878,352 W 1060 S,Orem,UT,84058,40.278187,-111.70364,1100000,5,6,4296,SINGLE_FAMILY,FOR_SALE,-1,1083700,3495,FALSE,FALSE,USD,USA,397200,9147.6,sqft,,,,,,,,,https://photos.zillowstatic.com/fp/121528ba07258debd9ab8c8caa980e3c-p_e.jpg,https://www.zillow.com/homedetails/352-W-1060-S-Orem-UT-84058/11929878_zpid/,310.0715308
12763758,2990 E Sherwood Dr,Salt Lake City,UT,84108,40.742302,-111.80497,2350000,3,6,3990,SINGLE_FAMILY,FOR_SALE,-1,2249100,6574,FALSE,FALSE,USD,USA,1451600,0.32,acres,,,,,,TRUE,Sat. 11am-2pm,"[{'open_house_start': 1714240800000, 'open_house_end': 1714251600000}]",https://photos.zillowstatic.com/fp/a3945227bac584c22c528bf4309b471a-p_e.jpg,https://www.zillow.com/homedetails/2990-E-Sherwood-Dr-Salt-Lake-City-UT-84108/12763758_zpid/,342.1204746
72625924,1843 S Paschal Cir,Salt Lake City,UT,84108,40.730434,-111.81692,568000,3,3,1280,TOWNHOUSE,FOR_SALE,-1,543000,2336,FALSE,FALSE,USD,USA,484300,3484.8,sqft,,,,,,,,,https://photos.zillowstatic.com/fp/7ae5055965d8e0024d2abfa9362cd10b-p_e.jpg,https://www.zillow.com/homedetails/1843-S-Paschal-Cir-Salt-Lake-City-UT-84108/72625924_zpid/,232.4486301
12779230,2532 E Maywood Dr,Salt Lake City,UT,84109,40.71874,-111.81871,3395000,4,5,5886,SINGLE_FAMILY,FOR_SALE,-1,3273300,6327,FALSE,FALSE,USD,USA,1430100,0.36,acres,,,,,,,,,https://photos.zillowstatic.com/fp/97785792c8078f584c0e96d794da691d-p_e.jpg,https://www.zillow.com/homedetails/2532-E-Maywood-Dr-Salt-Lake-City-UT-84109/12779230_zpid/,517.3541963
12755517,29 S State St APT 714,Salt Lake City,UT,84111,40.76845,-111.88794,229900,1,1,368,TOWNHOUSE,FOR_SALE,-1,219600,1281,FALSE,FALSE,USD,USA,176000,435.6,sqft,,,1.71E+12,"$10,000 (Mar 19)",-10000,,,,https://photos.zillowstatic.com/fp/b870d79b6b80a720dc1e0b9b847402db-p_e.jpg,https://www.zillow.com/homedetails/29-S-State-St-APT-714-Salt-Lake-City-UT-84111/12755517_zpid/,171.4285714
11944693,173 S 280 E,Orem,UT,84058,40.29403,-111.68879,495000,3,4,2444,SINGLE_FAMILY,FOR_SALE,-1,486000,2600,FALSE,FALSE,USD,USA,279800,7840.8,sqft,,,1.71E+12,"$15,000 (Apr 21)",-15000,,,,https://photos.zillowstatic.com/fp/7f90777a9837b1440777845fadedeb62-p_e.jpg,https://www.zillow.com/homedetails/173-S-280-E-Orem-UT-84058/11944693_zpid/,186.9230769
12812134,4161 S 2700 W APT 2B,Taylorsville,UT,84129,40.680798,-111.956985,244000,1,2,1058,CONDO,FOR_SALE,-1,239000,1632,FALSE,FALSE,USD,USA,211600,435.6,sqft,,,1.71E+12,"$5,000 (Apr 19)",-5000,,,,https://photos.zillowstatic.com/fp/146812430ada7a639f84a4eb849cf234-p_e.jpg,https://www.zillow.com/homedetails/4161-S-2700-W-APT-2B-Taylorsville-UT-84129/12812134_zpid/,146.4460784
305056339,969 E South Temple,Salt Lake City,UT,84102,40.76971,-111.86299,1025000,5,7,3586,MULTI_FAMILY,FOR_SALE,-1,989700,3816,FALSE,FALSE,USD,USA,1304400,7405.2,sqft,,,1.71E+12,"$25,000 (Apr 19)",-25000,,,,https://photos.zillowstatic.com/fp/2b0a244d3fbe35a71003097170a16b8d-p_e.jpg,https://www.zillow.com/homedetails/969-E-South-Temple-Salt-Lake-City-UT-84102/305056339_zpid/,259.3553459
12749668,3878 S 3520 W,West Valley City,UT,84119,40.687454,-111.97539,519000,3,5,2160,SINGLE_FAMILY,FOR_SALE,-1,510900,2550,FALSE,FALSE,USD,USA,331200,8712,sqft,,,,,,,,,https://photos.zillowstatic.com/fp/0eb8f9d8a3a6e73f59ab93ce563e0278-p_e.jpg,https://www.zillow.com/homedetails/3878-S-3520-W-West-Valley-City-UT-84119/12749668_zpid/,200.3529412
12777503,2666 S Chadwick St,Salt Lake City,UT,84106,40.713844,-111.85055,799900,3,5,2109,SINGLE_FAMILY,FOR_SALE,-1,787700,3128,FALSE,FALSE,USD,USA,541100,6098.4,sqft,,,1.71E+12,"$60,000 (Apr 24)",-60000,,,,https://photos.zillowstatic.com/fp/394c119e9f8790efd1bcadb9e1a13d82-p_e.jpg,https://www.zillow.com/homedetails/2666-S-Chadwick-St-Salt-Lake-City-UT-84106/12777503_zpid/,251.8222506
12714063,1613 W 500 N,Salt Lake City,UT,84116,40.779873,-111.93693,520000,2,3,2248,SINGLE_FAMILY,FOR_SALE,-1,515400,2197,FALSE,FALSE,USD,USA,365500,10018.8,sqft,,,1.71E+12,"$14,500 (Apr 4)",-14500,,,,https://photos.zillowstatic.com/fp/971de2bbe3e53cd611bfbaad88dfab93-p_e.jpg,https://www.zillow.com/homedetails/1613-W-500-N-Salt-Lake-City-UT-84116/12714063_zpid/,234.5926263
68833394,1521 W 550 S,Orem,UT,84058,40.28695,-111.731705,479900,3,3,1612,SINGLE_FAMILY,FOR_SALE,-1,480600,2114,FALSE,FALSE,USD,USA,267800,5227.2,sqft,,,1.71E+12,"$10,000 (Apr 18)",-10000,,,,https://photos.zillowstatic.com/fp/6002adf4fa1371be75bdeaa49b9c7c06-p_e.jpg,https://www.zillow.com/homedetails/1521-W-550-S-Orem-UT-84058/68833394_zpid/,227.3415326
12715038,566 N 900 W,Salt Lake City,UT,84116,40.781822,-111.91636,499999,2,3,2075,SINGLE_FAMILY,FOR_SALE,-1,497300,2581,FALSE,FALSE,USD,USA,353800,10454.4,sqft,,,1.71E+12,"$20,001 (Apr 8)",-20001,,,,https://photos.zillowstatic.com/fp/e038df4d3b0d15596912e0716454d249-p_e.jpg,https://www.zillow.com/homedetails/566-N-900-W-Salt-Lake-City-UT-84116/12715038_zpid/,192.6772569
12763441,2898 E Oakhurst Dr,Salt Lake City,UT,84108,40.746994,-111.80743,1600000,3,6,5894,SINGLE_FAMILY,FOR_SALE,-1,1530400,5186,FALSE,FALSE,USD,USA,1036500,0.34,acres,,,1.71E+12,"$100,000 (Apr 15)",-100000,,,,https://photos.zillowstatic.com/fp/bc734b97c728566f32d96cb7570f1de9-p_e.jpg,https://www.zillow.com/homedetails/2898-E-Oakhurst-Dr-Salt-Lake-City-UT-84108/12763441_zpid/,295.1021982
12718737,278 N A St,Salt Lake City,UT,84103,40.77598,-111.88328,1675000,4,5,3614,SINGLE_FAMILY,FOR_SALE,-1,1665700,5426,FALSE,FALSE,USD,USA,1229400,8276.4,sqft,,,,,,,,,https://photos.zillowstatic.com/fp/2d355d85c6a8dade5edfc7e10d803611-p_e.jpg,https://www.zillow.com/homedetails/278-N-A-St-Salt-Lake-City-UT-84103/12718737_zpid/,306.9848876
12736759,914 W 600 S,Salt Lake City,UT,84104,40.756516,-111.91781,435000,1,3,1110,SINGLE_FAMILY,FOR_SALE,-1,430900,1900,FALSE,FALSE,USD,USA,359700,3049.2,sqft,,,1.71E+12,"$15,000 (Apr 5)",-15000,,,,https://photos.zillowstatic.com/fp/ced287311052be0f01d4dc25b6947dfa-p_e.jpg,https://www.zillow.com/homedetails/914-W-600-S-Salt-Lake-City-UT-84104/12736759_zpid/,226.7894737
35979709,310 S 300 E APT A1,Salt Lake City,UT,84111,40.762505,-111.88282,349950,1,2,925,CONDO,FOR_SALE,-1,,1795,FALSE,FALSE,USD,USA,399700,435.6,sqft,,,1.71E+12,"$5,550 (Apr 17)",-5550,,,,https://photos.zillowstatic.com/fp/4002a20e771adb8dba201a0f20bff684-p_e.jpg,https://www.zillow.com/homedetails/310-S-300-E-APT-A1-Salt-Lake-City-UT-84111/35979709_zpid/,
12711493,971 N 900 W,Salt Lake City,UT,84116,40.79054,-111.91727,449900,3,4,1890,SINGLE_FAMILY,FOR_SALE,-1,,2550,FALSE,FALSE,USD,USA,392900,6098.4,sqft,,,1.71E+12,"$8,100 (Mar 9)",-8100,,,,https://photos.zillowstatic.com/fp/784e6d8af22685cca51f26ff677f6cf8-p_e.jpg,https://www.zillow.com/homedetails/971-N-900-W-Salt-Lake-City-UT-84116/12711493_zpid/,
2071485213,791 E 9th Ave N,Salt Lake City,UT,84103,40.779896,-111.86582,1250000,2,4,3141,SINGLE_FAMILY,FOR_SALE,-1,1275300,3900,FALSE,FALSE,USD,USA,,4791.6,sqft,,,,,,,,,https://photos.zillowstatic.com/fp/ad2f227c320cffa973e636eb64cb259e-p_e.jpg,https://www.zillow.com/homedetails/791-E-9th-Ave-N-Salt-Lake-City-UT-84103/2071485213_zpid/,327
2056454061,2250 S Redondo Ave 1,Salt Lake City,UT,84108,40.726604,-111.8261,679999,2,3,1750,SINGLE_FAMILY,FOR_SALE,-1,690100,2734,FALSE,FALSE,USD,USA,,6098.4,sqft,,,,,,,,,https://photos.zillowstatic.com/fp/0674253fae27c7c40ae7c55828942b91-p_e.jpg,https://www.zillow.com/homedetails/2250-S-Redondo-Ave-1-Salt-Lake-City-UT-84108/2056454061_zpid/,252.4140454
12750078,3575 S 3200 W APT 7A,West Valley City,UT,84119,40.695347,-111.96647,255000,1,2,860,CONDO,FOR_SALE,-1,253600,1514,FALSE,FALSE,USD,USA,223600,435.6,sqft,,,,,,,,,https://photos.zillowstatic.com/fp/2fccf4d76a68595602a38ca45ea87e93-p_e.jpg,https://www.zillow.com/homedetails/3575-S-3200-W-APT-7A-West-Valley-UT-84119/12750078_zpid/,167.5033025
11909954,463 N 900 W,Orem,UT,84057,40.30555,-111.71758,455000,2,4,1907,SINGLE_FAMILY,FOR_SALE,-1,449900,2028,FALSE,FALSE,USD,USA,234500,6534,sqft,,,1.71E+12,"$13,500 (Apr 25)",-13500,TRUE,Sat. 11am-5pm,"[{'open_house_start': 1714240800000, 'open_house_end': 1714262400000}]",https://photos.zillowstatic.com/fp/dd5175d45bfb931c9b9bed0a1cdb6757-p_e.jpg,https://www.zillow.com/homedetails/463-N-900-W-Orem-UT-84057/11909954_zpid/,221.8441815
12770893,1853 S McClelland St,Salt Lake City,UT,84105,40.729904,-111.86049,699900,2,4,1752,SINGLE_FAMILY,FOR_SALE,-1,681600,2914,FALSE,FALSE,USD,USA,367100,4356,sqft,,,1.71E+12,"$50,000 (Apr 9)",-50000,,,,https://photos.zillowstatic.com/fp/e6fa7a12dfcf656b79b335809b5bad16-p_e.jpg,https://www.zillow.com/homedetails/1853-S-McClelland-St-Salt-Lake-City-UT-84105/12770893_zpid/,233.9052848
12718321,254 E 7th Ave,Salt Lake City,UT,84103,40.77714,-111.88171,2349000,5,6,6432,SINGLE_FAMILY,FOR_SALE,-1,,5998,FALSE,FALSE,USD,USA,1543700,9583.2,sqft,,,,,,,,,https://photos.zillowstatic.com/fp/e904598b8df00370bf27dd7037931a39-p_e.jpg,https://www.zillow.com/homedetails/254-E-7th-Ave-Salt-Lake-City-UT-84103/12718321_zpid/,
12775138,2521 S Green St,Salt Lake City,UT,84106,40.71579,-111.872154,575000,2,3,1584,SINGLE_FAMILY,FOR_SALE,-1,568000,2491,FALSE,FALSE,USD,USA,408400,8276.4,sqft,,,1.71E+12,"$15,000 (Apr 5)",-15000,,,,https://photos.zillowstatic.com/fp/0ce7aa4d982c897e14b09ebc502f6f1c-p_e.jpg,https://www.zillow.com/homedetails/2521-S-Green-St-Salt-Lake-City-UT-84106/12775138_zpid/,228.0208752
12765829,2381 E Blaine Cir,Salt Lake City,UT,84108,40.732513,-111.822525,1295000,3,5,2715,SINGLE_FAMILY,FOR_SALE,-1,1300900,4397,FALSE,FALSE,USD,USA,1227600,7405.2,sqft,,,1.71E+12,"$5,000 (Apr 16)",-5000,,,,https://photos.zillowstatic.com/fp/b513bd455f9a76fbb2973174ae46204d-p_e.jpg,https://www.zillow.com/homedetails/2381-E-Blaine-Cir-Salt-Lake-City-UT-84108/12765829_zpid/,295.8608142
11924645,1522 N 230 W,Orem,UT,84057,40.325172,-111.701385,580000,3,3,2381,SINGLE_FAMILY,FOR_SALE,-1,582000,2500,FALSE,FALSE,USD,USA,338500,8712,sqft,,,1.71E+12,"$10,000 (Apr 22)",-10000,,,,https://photos.zillowstatic.com/fp/d97fe31a515795f140a25dce78f96378-p_e.jpg,https://www.zillow.com/homedetails/1522-N-230-W-Orem-UT-84057/11924645_zpid/,232.8
12776800,2204 S Wellington St,Salt Lake City,UT,84106,40.723125,-111.83873,799900,3,2,1950,SINGLE_FAMILY,FOR_SALE,-1,782400,3023,FALSE,FALSE,USD,USA,497900,6534,sqft,,,1.71E+12,"$25,000 (Apr 12)",-25000,TRUE,Sat. 11am-1pm,"[{'open_house_start': 1714240800000, 'open_house_end': 1714248000000}]",https://photos.zillowstatic.com/fp/2fb68a57c7d900c6f02523e77a559ece-p_e.jpg,https://www.zillow.com/homedetails/2204-S-Wellington-St-Salt-Lake-City-UT-84106/12776800_zpid/,258.8157459
11942368,178 S 70 W,Orem,UT,84058,40.293953,-111.69742,394000,3,3,1445,TOWNHOUSE,FOR_SALE,-1,391900,1919,FALSE,FALSE,USD,USA,229100,435.6,sqft,,,1.71E+12,"$10,000 (Apr 25)",-10000,TRUE,Thu. 8am-7:30pm,"[{'open_house_start': 1714057200000, 'open_house_end': 1714098600000}, {'open_house_start': 1714143600000, 'open_house_end': 1714185000000}, {'open_house_start': 1714230000000, 'open_house_end': 1714271400000}, {'open_house_start': 1714316400000, 'open_house_end': 1714357800000}, {'open_house_start': 1714402800000, 'open_house_end': 1714444200000}]",https://photos.zillowstatic.com/fp/fae9ed6cf20e29c67e93a2c34e685dcc-p_e.jpg,https://www.zillow.com/homedetails/178-S-70-W-Orem-UT-84058/11942368_zpid/,204.2209484
12799356,6139 W Lamus Cir,West Valley City,UT,84128,40.680473,-112.03777,479900,2,4,2024,SINGLE_FAMILY,FOR_SALE,-1,471600,2322,FALSE,FALSE,USD,USA,353900,8712,sqft,,,1.71E+12,"$20,000 (Apr 16)",-20000,,,,https://photos.zillowstatic.com/fp/e8c7670d3eb82f6811f23c8c23e41674-p_e.jpg,https://www.zillow.com/homedetails/6139-W-Lamus-Cir-West-Valley-City-UT-84128/12799356_zpid/,203.1007752
11931967,1088 S Palisades Dr,Orem,UT,84097,40.277042,-111.67328,675000,4,4,3186,SINGLE_FAMILY,FOR_SALE,-1,678900,2770,FALSE,FALSE,USD,USA,349500,8276.4,sqft,,,1.71E+12,,110000,,,,https://photos.zillowstatic.com/fp/2448d74df8dfde129f78e5245efb9014-p_e.jpg,https://www.zillow.com/homedetails/1088-S-Palisades-Dr-Orem-UT-84097/11931967_zpid/,245.0902527
12763837,1390 S Ambassador Way,Salt Lake City,UT,84108,40.74022,-111.81358,1500000,4,5,4752,SINGLE_FAMILY,FOR_SALE,-1,1416300,5349,FALSE,FALSE,USD,USA,912300,9583.2,sqft,,,1.71E+12,"$95,000 (Mar 1)",-95000,,,,https://photos.zillowstatic.com/fp/1965753650f4b68174f82e709a63d169-p_e.jpg,https://www.zillow.com/homedetails/1390-S-Ambassador-Way-Salt-Lake-City-UT-84108/12763837_zpid/,264.7784633
11932738,16 N 460 W,Orem,UT,84059,40.297493,-111.7066,588000,3,4,3384,MULTI_FAMILY,FOR_SALE,-1,598000,2885,FALSE,FALSE,USD,USA,350800,4356,sqft,,,1.71E+12,,48000,,,,https://photos.zillowstatic.com/fp/f3e14e1b4585dec9f492e353afd888e7-p_e.jpg,https://www.zillow.com/homedetails/16-N-460-W-Orem-UT-84059/11932738_zpid/,207.2790295
12737866,1527 W Glenrose Dr,Salt Lake City,UT,84104,40.746555,-111.93452,388900,2,3,943,SINGLE_FAMILY,FOR_SALE,-1,389900,1896,FALSE,FALSE,USD,USA,297900,7840.8,sqft,,,1.71E+12,"$2,900 (Apr 14)",-2900,,,,https://photos.zillowstatic.com/fp/04007194a79cd5b7be572395680be493-p_e.jpg,https://www.zillow.com/homedetails/1527-W-Glenrose-Dr-Salt-Lake-City-UT-84104/12737866_zpid/,205.6434599
35979713,310 S 300 E APT A5,Salt Lake City,UT,84111,40.762512,-111.882835,399950,1,2,1085,CONDO,FOR_SALE,-1,,1914,FALSE,FALSE,USD,USA,437300,435.6,sqft,,,1.71E+12,"$6,000 (Apr 17)",-6000,,,,https://photos.zillowstatic.com/fp/dea211c8756ef8fb5027e9efaa7c7d6b-p_e.jpg,https://www.zillow.com/homedetails/310-S-300-E-APT-A5-Salt-Lake-City-UT-84111/35979713_zpid/,
83815649,3822 S Clare Dr APT C11,West Valley City,UT,84119,40.688873,-111.93463,334000,2,3,1131,CONDO,FOR_SALE,-1,330400,1780,FALSE,FALSE,USD,USA,282600,435.6,sqft,,,1.71E+12,"$9,000 (Apr 18)",-9000,,,,https://photos.zillowstatic.com/fp/d3d80de99f1e481059ff60396a47a90d-p_e.jpg,https://www.zillow.com/homedetails/3822-S-Clare-Dr-APT-C11-West-Valley-City-UT-84119/83815649_zpid/,185.6179775
12779442,2029 E 2700 S APT 1,Salt Lake City,UT,84109,40.71323,-111.83304,320000,1,2,750,CONDO,FOR_SALE,-1,314300,1494,FALSE,FALSE,USD,USA,243600,435.6,sqft,,,1.71E+12,"$5,000 (Apr 9)",-5000,,,,https://photos.zillowstatic.com/fp/da99c63d69a11dbec3007c79d6375c55-p_e.jpg,https://www.zillow.com/homedetails/2029-E-2700-S-APT-1-Salt-Lake-City-UT-84109/12779442_zpid/,210.3748327
12716278,169 W 400 N,Salt Lake City,UT,84103,40.777752,-111.89562,799999,2,4,1600,SINGLE_FAMILY,FOR_SALE,-1,788700,3340,FALSE,FALSE,USD,USA,465400,2178,sqft,,,1.71E+12,"$25,001 (Apr 24)",-25001,,,,https://photos.zillowstatic.com/fp/23bd936e918d0f916213d34149a01110-p_e.jpg,https://www.zillow.com/homedetails/169-W-400-N-Salt-Lake-City-UT-84103/12716278_zpid/,236.1377246
12779292,2012 E Stratford Dr,Salt Lake City,UT,84109,40.714676,-111.83345,749900,2,3,1776,SINGLE_FAMILY,FOR_SALE,-1,747400,2800,FALSE,FALSE,USD,USA,565100,6969.6,sqft,,,1.71E+12,$100 (Apr 20),-100,,,,https://photos.zillowstatic.com/fp/f56d8b1fcf5e27f53249f14a762b6fb0-p_e.jpg,https://www.zillow.com/homedetails/2012-E-Stratford-Dr-Salt-Lake-City-UT-84109/12779292_zpid/,266.9285714
12772717,246 E Ramona Ave,Salt Lake City,UT,84115,40.727886,-111.883934,524499,1,3,1425,SINGLE_FAMILY,FOR_SALE,-1,,2199,FALSE,FALSE,USD,USA,474900,3484.8,sqft,,,1.71E+12,$500 (Apr 25),-500,,,,https://photos.zillowstatic.com/fp/dc3deabb81d2df83dcab68857475dd7c-p_e.jpg,https://www.zillow.com/homedetails/246-E-Ramona-Ave-Salt-Lake-City-UT-84115/12772717_zpid/,
12814810,4132 S 4580 W,West Valley City,UT,84120,40.68124,-112.0007,480000,2,3,2394,SINGLE_FAMILY,FOR_SALE,-1,468800,2199,FALSE,FALSE,USD,USA,439700,8712,sqft,,,1.71E+12,"$9,000 (Apr 9)",-9000,,,,https://photos.zillowstatic.com/fp/b3a946666939ab3c0f7f3aa3fd16a960-p_e.jpg,https://www.zillow.com/homedetails/4132-S-4580-W-West-Valley-City-UT-84120/12814810_zpid/,213.1878126
12768499,1934 E Downington Ave,Salt Lake City,UT,84108,40.73058,-111.83534,949900,3,4,2764,SINGLE_FAMILY,FOR_SALE,-1,922200,3702,FALSE,FALSE,USD,USA,729100,9147.6,sqft,,,1.71E+12,"$50,099 (Apr 8)",-50099,,,,https://photos.zillowstatic.com/fp/caee3602a0016a7757822528d90761a8-p_e.jpg,https://www.zillow.com/homedetails/1934-E-Downington-Ave-Salt-Lake-City-UT-84108/12768499_zpid/,249.10859
12738882,838 W Fayette Ave,Salt Lake City,UT,84104,40.748146,-111.915146,440000,2,5,1704,SINGLE_FAMILY,FOR_SALE,-1,435300,2466,FALSE,FALSE,USD,USA,371000,6534,sqft,,,1.71E+12,"$10,000 (Apr 20)",-10000,,,,https://photos.zillowstatic.com/fp/de5a6330ed626c483b7ccfc3d2dd51fe-p_e.jpg,https://www.zillow.com/homedetails/838-W-Fayette-Ave-Salt-Lake-City-UT-84104/12738882_zpid/,176.5206813
11910128,1784 N 760 W,Orem,UT,84057,40.329887,-111.71418,509900,3,5,2288,SINGLE_FAMILY,FOR_SALE,-1,504100,2386,FALSE,FALSE,USD,USA,305900,9147.6,sqft,,,1.71E+12,"$10,000 (Apr 17)",-10000,,,,https://photos.zillowstatic.com/fp/fac9ae45327550b791cf0beb0e26a3ec-p_e.jpg,https://www.zillow.com/homedetails/1784-N-760-W-Orem-UT-84057/11910128_zpid/,211.2740989
11929072,490 N 700 E,Orem,UT,84097,40.30617,-111.67879,524900,3,3,2635,SINGLE_FAMILY,FOR_SALE,-1,520800,2514,FALSE,FALSE,USD,USA,323100,2613.6,sqft,,,1.71E+12,"$5,000 (Apr 22)",-5000,,,,https://photos.zillowstatic.com/fp/765de07ae82765d209618209bea543e7-p_e.jpg,https://www.zillow.com/homedetails/490-N-700-E-Orem-UT-84097/11929072_zpid/,207.1599045
63226077,587 N 550 W,Orem,UT,84057,40.30783,-111.709236,475000,2,4,2118,SINGLE_FAMILY,FOR_SALE,-1,467800,2197,FALSE,FALSE,USD,USA,269300,10454.4,sqft,,,,,,,,,https://photos.zillowstatic.com/fp/9fbaa2ecf28eaad4456c7ec3cb41fa0d-p_e.jpg,https://www.zillow.com/homedetails/587-N-550-W-Orem-UT-84057/63226077_zpid/,212.9267183
12798349,4433 S Woodgrove Dr,West Valley City,UT,84120,40.674072,-112.01536,469900,2,4,1786,SINGLE_FAMILY,FOR_SALE,-1,462200,2345,FALSE,FALSE,USD,USA,359500,7405.2,sqft,,,1.71E+12,"$5,000 (Apr 10)",-5000,,,,https://photos.zillowstatic.com/fp/c4a9a468a703f817fec5c96e83cb236c-p_e.jpg,https://www.zillow.com/homedetails/4433-S-Woodgrove-Dr-West-Valley-City-UT-84120/12798349_zpid/,197.1002132
12737699,983 S Montgomery St,Salt Lake City,UT,84104,40.74836,-111.93527,465000,2,4,1470,SINGLE_FAMILY,FOR_SALE,-1,450000,2400,FALSE,FALSE,USD,USA,359000,6969.6,sqft,,,1.71E+12,"$10,000 (Apr 17)",-10000,,,,https://photos.zillowstatic.com/fp/b2568e2e39ef335c3cc59814baece83b-p_e.jpg,https://www.zillow.com/homedetails/983-S-Montgomery-St-Salt-Lake-City-UT-84104/12737699_zpid/,187.5
2072010734,2543 S Alden St E,Salt Lake City,UT,84106,40.71619,-111.85222,965000,4,4,2726,SINGLE_FAMILY,FOR_SALE,-1,950800,3833,FALSE,FALSE,USD,USA,,9583.2,sqft,,,1.71E+12,"$10,000 (Apr 17)",-10000,,,,https://photos.zillowstatic.com/fp/abedc3ae951253b53936f84e205e049e-p_e.jpg,https://www.zillow.com/homedetails/2543-S-Alden-St-E-Salt-Lake-City-UT-84106/2072010734_zpid/,248.0563527
2069427075,812 Penni Ln,Orem,UT,84097,40.317905,-111.67646,699000,4,4,3004,SINGLE_FAMILY,FOR_SALE,-1,699600,1599,FALSE,FALSE,USD,USA,,2178,sqft,,,,,,,,,https://photos.zillowstatic.com/fp/67cb2ac01a3f780ee26853c0eb0392da-p_e.jpg,https://www.zillow.com/homedetails/812-Penni-Ln-Orem-UT-84097/2069427075_zpid/,437.5234522
12779109,2311 E Country Club Dr,Salt Lake City,UT,84109,40.71884,-111.82417,2600000,6,5,6185,SINGLE_FAMILY,FOR_SALE,-1,2446500,9305,FALSE,FALSE,USD,USA,2465300,0.35,acres,,,1.70E+12,,-300000,,,,https://photos.zillowstatic.com/fp/98ca0d37ebaa7952aac50cb20d6a7d3c-p_e.jpg,https://www.zillow.com/homedetails/2311-E-Country-Club-Dr-Salt-Lake-City-UT-84109/12779109_zpid/,262.9231596
11922327,453 E 780 N,Orem,UT,84097,40.311653,-111.685074,499999,2,6,2400,SINGLE_FAMILY,FOR_SALE,-1,493200,2514,FALSE,FALSE,USD,USA,303200,9583.2,sqft,,,,,,,,,https://photos.zillowstatic.com/fp/81b3ca01852a8b51d4c780b2ab94e891-p_e.jpg,https://www.zillow.com/homedetails/453-E-780-N-Orem-UT-84097/11922327_zpid/,196.1813842
2071958660,235 W Reed Ave N,Salt Lake City,UT,84103,40.785507,-111.89806,849000,2,3,1835,SINGLE_FAMILY,FOR_SALE,-1,858300,3398,FALSE,FALSE,USD,USA,,3484.8,sqft,,,,,,,,,https://photos.zillowstatic.com/fp/a2d57694810958dea283c9f83e533d43-p_e.jpg,https://www.zillow.com/homedetails/235-W-Reed-Ave-N-Salt-Lake-City-UT-84103/2071958660_zpid/,252.5897587
53352338,838 W 200 N,Orem,UT,84057,40.30111,-111.71574,576900,3,6,2592,SINGLE_FAMILY,FOR_SALE,-1,562700,2698,FALSE,FALSE,USD,USA,312600,5227.2,sqft,,,1.71E+12,"$22,099 (Apr 19)",-22099,,,,https://photos.zillowstatic.com/fp/92dd6333bfd89e45479473ebeca37ce3-p_e.jpg,https://www.zillow.com/homedetails/838-W-200-N-Orem-UT-84057/53352338_zpid/,208.5618977
12776396,1130 E 2700 S APT K86,Salt Lake City,UT,84106,40.711384,-111.858116,375000,1,2,1270,CONDO,FOR_SALE,-1,370700,1710,FALSE,FALSE,USD,USA,310800,435.6,sqft,,,,,,,,,https://photos.zillowstatic.com/fp/bcd7662a44343e57177341c9c7bb2b25-p_e.jpg,https://www.zillow.com/homedetails/1130-E-2700-S-APT-K86-Salt-Lake-City-UT-84106/12776396_zpid/,216.7836257
347906402,346 W Pierpont Ave S E104,Salt Lake City,UT,84101,40.76406,-111.901276,325000,1,1,560,CONDO,FOR_SALE,-1,325400,,FALSE,FALSE,USD,USA,,435.6,sqft,,,,,,,,,https://photos.zillowstatic.com/fp/211043fd31930373507c3fdc9bebb3ed-p_e.jpg,https://www.zillow.com/homedetails/346-W-Pierpont-Ave-S-E104-Salt-Lake-City-UT-84101/347906402_zpid/,
12738831,801 W Genesee Ave,Salt Lake City,UT,84104,40.750645,-111.914276,484900,3,6,2048,SINGLE_FAMILY,FOR_SALE,-1,,2843,FALSE,FALSE,USD,USA,306900,4791.6,sqft,,,,,,,,,https://photos.zillowstatic.com/fp/c6b673b1ac6511b7daaf9607e33f5155-p_e.jpg,https://www.zillow.com/homedetails/801-W-Genesee-Ave-Salt-Lake-City-UT-84104/12738831_zpid/,
2079856678,938 E High Country Dr,Orem,UT,84097,40.32708,-111.67476,1225000,4,5,5120,SINGLE_FAMILY,FOR_SALE,-1,1277200,5316,FALSE,FALSE,USD,USA,,1.01,acres,,,1.71E+12,"$50,000 (Apr 23)",-50000,,,,https://photos.zillowstatic.com/fp/a0d12aed269f125afbe6a1a2056f611d-p_e.jpg,https://www.zillow.com/homedetails/938-E-High-Country-Dr-Orem-UT-84097/2079856678_zpid/,240.2558315
12756345,241 E Belmont Ave,Salt Lake City,UT,84111,40.748264,-111.884,1498000,4,5,3900,SINGLE_FAMILY,FOR_SALE,-1,1455100,5881,FALSE,FALSE,USD,USA,404900,4791.6,sqft,,,1.71E+12,"$50,000 (Apr 15)",-50000,,,,https://photos.zillowstatic.com/fp/6f562153611b36f32d9a508eedf23d2d-p_e.jpg,https://www.zillow.com/homedetails/241-E-Belmont-Ave-Salt-Lake-City-UT-84111/12756345_zpid/,247.4239075
12745363,3224 S Jason Pl,West Valley City,UT,84119,40.701595,-111.971405,410000,1,3,1575,SINGLE_FAMILY,FOR_SALE,-1,405800,1849,FALSE,FALSE,USD,USA,307300,3920.4,sqft,,,1.71E+12,"$10,000 (Apr 16)",-10000,,,,https://photos.zillowstatic.com/fp/7257788318c1abbf3c9c24380622386a-p_e.jpg,https://www.zillow.com/homedetails/3224-S-Jason-Pl-West-Valley-City-UT-84119/12745363_zpid/,219.4699838
11924640,1527 N 230 W,Orem,UT,84057,40.325275,-111.701904,585000,4,5,2992,SINGLE_FAMILY,FOR_SALE,-1,576900,2600,FALSE,FALSE,USD,USA,388300,9147.6,sqft,,,1.71E+12,"$10,000 (Apr 24)",-10000,,,,https://photos.zillowstatic.com/fp/51ab173aa8f670d109e105bc30455f18-p_e.jpg,https://www.zillow.com/homedetails/1527-N-230-W-Orem-UT-84057/11924640_zpid/,221.8846154
35978746,369 E 9th Ave,Salt Lake City,UT,84103,40.779903,-111.87841,997000,4,3,2378,TOWNHOUSE,FOR_SALE,-1,977300,3769,FALSE,FALSE,USD,USA,650600,1306.8,sqft,,,,,,,,,https://photos.zillowstatic.com/fp/ec2a879793d77710184c03263409f709-p_e.jpg,https://www.zillow.com/homedetails/369-E-9th-Ave-Salt-Lake-City-UT-84103/35978746_zpid/,259.299549
12716162,452 N 300 W,Salt Lake City,UT,84103,40.779366,-111.89915,599900,1,3,2050,SINGLE_FAMILY,FOR_SALE,-1,581500,2317,FALSE,FALSE,USD,USA,494600,7840.8,sqft,,,,,,,,,https://photos.zillowstatic.com/fp/1ef3191975be0cbe5ee602735e2fb8e2-p_e.jpg,https://www.zillow.com/homedetails/452-N-300-W-Salt-Lake-City-UT-84103/12716162_zpid/,250.9710833
12744712,2781 S Downs Way,West Valley City,UT,84119,40.709724,-111.97626,255900,1,2,800,CONDO,FOR_SALE,-1,256100,1486,FALSE,FALSE,USD,USA,190100,435.6,sqft,,,,,,,,,https://photos.zillowstatic.com/fp/df95ce43285e03acd0ae225163feb3be-p_e.jpg,https://www.zillow.com/homedetails/2781-S-Downs-Way-West-Valley-City-UT-84119/12744712_zpid/,172.3418573
12759395,1004 S 1000 E,Salt Lake City,UT,84105,40.747185,-111.862854,975000,2,5,3403,SINGLE_FAMILY,FOR_SALE,-1,984200,3885,FALSE,FALSE,USD,USA,712700,6534,sqft,,,,,,,,,https://photos.zillowstatic.com/fp/6ad544fa09de3e81871322ed0c53ddab-p_e.jpg,https://www.zillow.com/homedetails/1004-S-1000-E-Salt-Lake-City-UT-84105/12759395_zpid/,253.3333333
2071469924,475 N Dorothea Way W,Salt Lake City,UT,84116,40.779823,-111.94472,520000,2,5,1920,SINGLE_FAMILY,FOR_SALE,-1,535800,1200,FALSE,FALSE,USD,USA,,5227.2,sqft,,,,,,,,,https://photos.zillowstatic.com/fp/2e143cde7507a8fbb93c738210592fc8-p_e.jpg,https://www.zillow.com/homedetails/475-N-Dorothea-Way-W-Salt-Lake-City-UT-84116/2071469924_zpid/,446.5
12750303,3728 S American Dr,West Valley City,UT,84119,40.69098,-111.961655,445900,2,4,1298,SINGLE_FAMILY,FOR_SALE,-1,446700,2163,FALSE,FALSE,USD,USA,256900,9583.2,sqft,,,1.71E+12,"$4,000 (Apr 17)",-4000,,,,https://photos.zillowstatic.com/fp/e5dcb8c2d5c61ff703a98d60a6636dc0-p_e.jpg,https://www.zillow.com/homedetails/3728-S-American-Dr-West-Valley-City-UT-84119/12750303_zpid/,206.518724
11930608,735 N 550 W,Orem,UT,84057,40.310654,-111.70927,500000,3,5,2058,SINGLE_FAMILY,FOR_SALE,-1,488300,2305,FALSE,FALSE,USD,USA,292500,7405.2,sqft,,,1.71E+12,"$5,000 (Apr 18)",-5000,TRUE,Thu. 8am-7:30pm,"[{'open_house_start': 1714057200000, 'open_house_end': 1714098600000}, {'open_house_start': 1714143600000, 'open_house_end': 1714185000000}, {'open_house_start': 1714230000000, 'open_house_end': 1714271400000}, {'open_house_start': 1714316400000, 'open_house_end': 1714357800000}]",https://photos.zillowstatic.com/fp/4b7575f28d7c6ec8102f71033ff7ec25-p_e.jpg,https://www.zillow.com/homedetails/735-N-550-W-Orem-UT-84057/11930608_zpid/,211.8438178
12763854,1485 S Roxbury Rd,Salt Lake City,UT,84108,40.738182,-111.81415,1900000,5,5,5116,SINGLE_FAMILY,FOR_SALE,-1,1798600,7211,FALSE,FALSE,USD,USA,1344100,0.34,acres,,,,,,,,,https://photos.zillowstatic.com/fp/da85032c15151d4eb8d7150d530a2399-p_e.jpg,https://www.zillow.com/homedetails/1485-S-Roxbury-Rd-Salt-Lake-City-UT-84108/12763854_zpid/,249.4244904
2064187822,869 S Washington St 103,Salt Lake City,UT,84101,40.7502,-111.897835,674900,4,3,2180,TOWNHOUSE,FOR_SALE,-1,,2930,FALSE,FALSE,USD,USA,742700,4356,sqft,,,1.71E+12,"$10,000 (Mar 26)",-10000,,,,https://photos.zillowstatic.com/fp/c6111ff3d734a08d9c919e89ff248a02-p_e.jpg,https://www.zillow.com/homedetails/869-S-Washington-St-103-Salt-Lake-City-UT-84101/2064187822_zpid/,
12769657,1059 E Kensington Ave,Salt Lake City,UT,84105,40.736595,-111.86057,825000,3,4,2401,SINGLE_FAMILY,FOR_SALE,-1,792500,3244,FALSE,FALSE,USD,USA,827400,5662.8,sqft,,,1.71E+12,"$14,900 (Apr 9)",-14900,,,,https://photos.zillowstatic.com/fp/ad03f4c84ea6834c7f4979c2e0efae85-p_e.jpg,https://www.zillow.com/homedetails/1059-E-Kensington-Ave-Salt-Lake-City-UT-84105/12769657_zpid/,244.297164
12765181,2500 E 1700 S,Salt Lake City,UT,84108,40.733295,-111.81908,865000,3,6,2616,SINGLE_FAMILY,FOR_SALE,-1,826300,3884,FALSE,FALSE,USD,USA,794900,8276.4,sqft,,,1.71E+12,"$30,000 (Apr 16)",-30000,,,,https://photos.zillowstatic.com/fp/75d7a57e2be53dbfac26e0ffde223cbd-p_e.jpg,https://www.zillow.com/homedetails/2500-E-1700-S-Salt-Lake-City-UT-84108/12765181_zpid/,212.7445932
35978741,466 N Wall St,Salt Lake City,UT,84103,40.77972,-111.89203,1499093,4,3,3044,SINGLE_FAMILY,FOR_SALE,-1,,4834,FALSE,FALSE,USD,USA,1280700,0.3,acres,,,,,,,,,https://photos.zillowstatic.com/fp/3d7228bd56ae72bf2810e0c7df0191ec-p_e.jpg,https://www.zillow.com/homedetails/466-N-Wall-St-Salt-Lake-City-UT-84103/35978741_zpid/,
12758065,345 E Sherman Ave,Salt Lake City,UT,84115,40.741035,-111.881096,584900,2,4,1196,MULTI_FAMILY,FOR_SALE,-1,,1963,FALSE,FALSE,USD,USA,501600,6098.4,sqft,,,1.71E+12,$100 (Apr 22),-100,,,,https://photos.zillowstatic.com/fp/d18b17ccc3bc6a66d5db6497df845d5b-p_e.jpg,https://www.zillow.com/homedetails/345-E-Sherman-Ave-Salt-Lake-City-UT-84115/12758065_zpid/,
12748646,3649 S Hawkeye St,West Valley City,UT,84120,40.69309,-111.98205,574500,2,5,2072,SINGLE_FAMILY,FOR_SALE,-1,,2500,FALSE,FALSE,USD,USA,370600,8712,sqft,,,1.71E+12,"$13,000 (Apr 24)",-13000,,,,https://photos.zillowstatic.com/fp/6d4c9d9c9a992acda38fecea4593a3b8-p_e.jpg,https://www.zillow.com/homedetails/3649-S-Hawkeye-St-West-Valley-City-UT-84120/12748646_zpid/,
11918842,1287 S 1145 W,Orem,UT,84058,40.273674,-111.72227,365000,3,2,1143,TOWNHOUSE,FOR_SALE,-1,362300,1163,FALSE,FALSE,USD,USA,204200,435.6,sqft,,,1.71E+12,"$5,000 (Apr 5)",-5000,,,,https://photos.zillowstatic.com/fp/62e1b245aa435afdce2af79a9d812813-p_e.jpg,https://www.zillow.com/homedetails/1287-S-1145-W-Orem-UT-84058/11918842_zpid/,311.5219261
12753498,155 S Dooley Ct,Salt Lake City,UT,84102,40.765747,-111.86689,539000,1,2,1000,SINGLE_FAMILY,FOR_SALE,-1,511400,1898,FALSE,FALSE,USD,USA,501900,3049.2,sqft,,,1.71E+12,"$10,000 (Feb 14)",-10000,,,,https://photos.zillowstatic.com/fp/e721364efe1530878cbdf0e5a780a135-p_e.jpg,https://www.zillow.com/homedetails/155-S-Dooley-Ct-Salt-Lake-City-UT-84102/12753498_zpid/,269.4415174
2054615725,6996 W Hightower Rd,West Jordan,UT,84081,40.63684,-112.05809,759900,3,4,3140,SINGLE_FAMILY,FOR_SALE,-1,751700,2795,FALSE,FALSE,USD,USA,,7405.2,sqft,,,,,,,,,https://photos.zillowstatic.com/fp/c3ebc2caa91d80755150852cf1496bcf-p_e.jpg,https://www.zillow.com/homedetails/6996-W-Hightower-Rd-West-Jordan-UT-84081/2054615725_zpid/,268.9445438
89425596,417 E 300 S 7,Salt Lake City,UT,84111,40.762882,-111.8896,480000,1,2,1033,CONDO,FOR_SALE,-1,480900,1938,FALSE,FALSE,USD,USA,425300,435.6,sqft,,,,,,,,,https://photos.zillowstatic.com/fp/319d0205bab21d3cf3f7d518db751433-p_e.jpg,https://www.zillow.com/homedetails/417-E-300-S-7-Salt-Lake-City-UT-84111/89425596_zpid/,248.1424149
2097723645,60 N E St,Salt Lake City,UT,84103,40.77094,-111.87732,2300000,7,12,6620,MULTI_FAMILY,FOR_SALE,-1,2320000,9034,FALSE,FALSE,USD,USA,,4791.6,sqft,,,,,,,,,https://photos.zillowstatic.com/fp/d49efcfd1678a264c2311d13d2378c1d-p_e.jpg,https://www.zillow.com/homedetails/60-N-E-St-Salt-Lake-City-UT-84103/2097723645_zpid/,256.8076157
12712623,849 N Star Crest Dr,Salt Lake City,UT,84116,40.787724,-111.94388,548800,3,4,1877,SINGLE_FAMILY,FOR_SALE,-1,,,FALSE,FALSE,USD,USA,370100,6098.4,sqft,,,1.71E+12,,43800,,,,https://photos.zillowstatic.com/fp/48b437ed9722888b2a1f2f796af2d9bf-p_e.jpg,https://www.zillow.com/homedetails/849-N-Star-Crest-Dr-Salt-Lake-City-UT-84116/12712623_zpid/,
11931800,79 S 400 E,Orem,UT,84059,40.295395,-111.685715,460000,2,5,1938,SINGLE_FAMILY,FOR_SALE,-1,454800,2194,FALSE,FALSE,USD,USA,256100,6534,sqft,,,1.71E+12,"$7,500 (Apr 24)",-7500,TRUE,Sat. 12-2pm,"[{'open_house_start': 1714244400000, 'open_house_end': 1714251600000}]",https://photos.zillowstatic.com/fp/fcf6a6f5545a6f3844662a72f4ae92c0-p_e.jpg,https://www.zillow.com/homedetails/79-S-400-E-Orem-UT-84059/11931800_zpid/,207.2926162
11945384,377 W 100 S,Orem,UT,84058,40.295113,-111.70461,512000,3,3,2088,SINGLE_FAMILY,FOR_SALE,-1,509200,2299,FALSE,FALSE,USD,USA,296700,4791.6,sqft,,,1.71E+12,"$13,000 (Apr 4)",-13000,,,,https://photos.zillowstatic.com/fp/6c99ba5f5e48a6e5f5bb73ff6ae43fac-p_e.jpg,https://www.zillow.com/homedetails/377-W-100-S-Orem-UT-84058/11945384_zpid/,221.4876033
12720544,681 E 5th Ave,Salt Lake City,UT,84103,40.77542,-111.86897,850000,4,5,2352,MULTI_FAMILY,FOR_SALE,-1,826500,3719,FALSE,FALSE,USD,USA,599100,4356,sqft,,,,,,,,,https://photos.zillowstatic.com/fp/70fb0bef2bac33e3aca66d55a4687766-p_e.jpg,https://www.zillow.com/homedetails/681-E-5th-Ave-Salt-Lake-City-UT-84103/12720544_zpid/,222.2371605
58770960,3347 S Abbey Glen Way UNIT A,West Valley City,UT,84128,40.699337,-112.0535,407000,2,2,1606,CONDO,FOR_SALE,-1,398500,1949,FALSE,FALSE,USD,USA,373000,435.6,sqft,,,1.71E+12,"$5,500 (Apr 1)",-5500,,,,https://photos.zillowstatic.com/fp/2ebaa99d77627996c6d2fb2520ad07ea-p_e.jpg,https://www.zillow.com/homedetails/3347-S-Abbey-Glen-Way-UNIT-A-West-Valley-UT-84128/58770960_zpid/,204.4638276
2054144524,303 N A St E 102,Salt Lake City,UT,84103,40.776142,-111.88385,409900,2,2,1200,CONDO,FOR_SALE,-1,404900,1895,FALSE,FALSE,USD,USA,,435.6,sqft,,,1.71E+12,"$19,100 (Mar 14)",-19100,,,,https://photos.zillowstatic.com/fp/5701e3a748a6a5468e67222f3d461097-p_e.jpg,https://www.zillow.com/homedetails/303-N-A-St-E-102-Salt-Lake-City-UT-84103/2054144524_zpid/,213.6675462
12760678,1788 E Hubbard Ave,Salt Lake City,UT,84108,40.748493,-111.83955,2900000,9,6,11860,SINGLE_FAMILY,FOR_SALE,-1,2728700,10300,FALSE,FALSE,USD,USA,3484400,9147.6,sqft,,,1.71E+12,"$75,000 (Mar 19)",-75000,,,,https://photos.zillowstatic.com/fp/8d14996e5072b70781be507cfc00bb5a-p_e.jpg,https://www.zillow.com/homedetails/1788-E-Hubbard-Ave-Salt-Lake-City-UT-84108/12760678_zpid/,264.9223301
12717693,545 E 16th Ave,Salt Lake City,UT,84103,40.78801,-111.87266,2490000,6,8,9082,SINGLE_FAMILY,FOR_SALE,-1,2353300,9810,FALSE,FALSE,USD,USA,1700700,0.44,acres,,,1.71E+12,"$110,000 (Apr 15)",-110000,,,,https://photos.zillowstatic.com/fp/16f166fff67f6edba9ed86b8192792c9-p_e.jpg,https://www.zillow.com/homedetails/545-E-16th-Ave-Salt-Lake-City-UT-84103/12717693_zpid/,239.8878695
12736540,616 S Glendale St,Salt Lake City,UT,84104,40.755833,-111.923874,449900,1,3,1678,SINGLE_FAMILY,FOR_SALE,-1,460200,1638,FALSE,FALSE,USD,USA,238900,5662.8,sqft,,,,,,,,,https://photos.zillowstatic.com/fp/ed981a38f518e317e670ae72ec43844b-p_e.jpg,https://www.zillow.com/homedetails/616-S-Glendale-St-Salt-Lake-City-UT-84104/12736540_zpid/,280.952381
347676642,860 E 3rd Ave 2,Salt Lake City,UT,84103,40.772602,-111.86385,1400000,5,3,2181,TOWNHOUSE,FOR_SALE,-1,1402300,,FALSE,FALSE,USD,USA,,435.6,sqft,TRUE,NEW_CONSTRUCTION_TYPE_OTHER,,,,,,,https://photos.zillowstatic.com/fp/18511015dd768ccd214199aa2c79e24a-p_e.jpg,https://www.zillow.com/homedetails/860-E-3rd-Ave-2-Salt-Lake-City-UT-84103/347676642_zpid/,
2055548696,500 N 450 W,Orem,UT,84057,40.306362,-111.70663,704900,3,5,3736,SINGLE_FAMILY,FOR_SALE,-1,696900,3300,FALSE,FALSE,USD,USA,,9583.2,sqft,TRUE,BUILDER_SPEC,1.71E+12,,15000,,,,https://photos.zillowstatic.com/fp/f4e831d5e2f8611bbdc9fd26c4ab8ffe-p_e.jpg,https://www.zillow.com/homedetails/500-N-450-W-Orem-UT-84057/2055548696_zpid/,211.1818182
65729917,5 S 500 W UNIT 1210,Salt Lake City,UT,84101,40.76813,-111.90438,770000,2,3,1598,CONDO,FOR_SALE,-1,772000,2325,FALSE,FALSE,USD,USA,614500,435.6,sqft,,,,,,TRUE,Sat. 11am-1pm,"[{'open_house_start': 1714240800000, 'open_house_end': 1714248000000}]",https://photos.zillowstatic.com/fp/40827b9829ed886c212c66f86fe08abb-p_e.jpg,https://www.zillow.com/homedetails/5-S-500-W-UNIT-1210-Salt-Lake-City-UT-84101/65729917_zpid/,332.0430108
11918767,1410 N Main St,Orem,UT,84057,40.323055,-111.69579,649999,3,6,2993,SINGLE_FAMILY,FOR_SALE,-1,638800,2626,FALSE,FALSE,USD,USA,395200,9583.2,sqft,,,,,,,,,https://photos.zillowstatic.com/fp/c88b68be59e3fbdc1ec7d3231ca6f17a-p_e.jpg,https://www.zillow.com/homedetails/1410-N-Main-St-Orem-UT-84057/11918767_zpid/,243.2597106
12717726,810 N Northpoint Dr,Salt Lake City,UT,84103,40.785793,-111.87891,1125000,3,4,4586,CONDO,FOR_SALE,-1,1095200,4401,FALSE,FALSE,USD,USA,544700,435.6,sqft,,,1.71E+12,"$50,000 (Apr 22)",-50000,,,,https://photos.zillowstatic.com/fp/93f00f383b6997b9a8db7bfe0cd9f488-p_e.jpg,https://www.zillow.com/homedetails/810-N-Northpoint-Dr-Salt-Lake-City-UT-84103/12717726_zpid/,248.8525335
11899385,125 S 800 W,Orem,UT,84058,40.294853,-111.71439,420000,2,3,1350,SINGLE_FAMILY,FOR_SALE,-1,431600,1729,FALSE,FALSE,USD,USA,217800,6969.6,sqft,,,,,,,,,https://photos.zillowstatic.com/fp/2d27568abc72c87fdd976d44d46a7405-p_e.jpg,https://www.zillow.com/homedetails/125-S-800-W-Orem-UT-84058/11899385_zpid/,249.6240602
2071372939,212 E Herbert Ave S,Salt Lake City,UT,84111,40.746246,-111.88493,630000,2,3,1612,SINGLE_FAMILY,FOR_SALE,-1,619900,2495,FALSE,FALSE,USD,USA,,7840.8,sqft,,,1.71E+12,"$15,000 (Apr 19)",-15000,,,,https://photos.zillowstatic.com/fp/4e86c242eb9227b6aa9186a12fde755b-p_e.jpg,https://www.zillow.com/homedetails/212-E-Herbert-Ave-S-Salt-Lake-City-UT-84111/2071372939_zpid/,248.4569138
346267647,521 E 5th Ave N P2 605,Salt Lake City,UT,84103,40.77563,-111.873726,372000,1,1,708,CONDO,FOR_SALE,-1,374100,1450,FALSE,FALSE,USD,USA,,435.6,sqft,,,,,,,,,https://photos.zillowstatic.com/fp/edc74149b731b8c6b2008755246d3b00-p_e.jpg,https://www.zillow.com/homedetails/521-E-5th-Ave-N-P2-605-Salt-Lake-City-UT-84103/346267647_zpid/,258
12722267,1455 E Military Way,Salt Lake City,UT,84103,40.77218,-111.84643,2000000,4,4,3845,SINGLE_FAMILY,FOR_SALE,-1,1911300,7209,FALSE,FALSE,USD,USA,1570500,0.35,acres,,,1.71E+12,"$200,000 (Mar 27)",-200000,TRUE,Sat. 1:30-4:30pm,"[{'open_house_start': 1714249800000, 'open_house_end': 1714260600000}]",https://photos.zillowstatic.com/fp/1dbc1b3123f8b960f22d89fd0c9ba05f-p_e.jpg,https://www.zillow.com/homedetails/1455-E-Military-Way-Salt-Lake-City-UT-84103/12722267_zpid/,265.1269247
2062986891,930 W 965th St N UNIT 304,Orem,UT,84057,40.315334,-111.718735,365000,2,3,1300,CONDO,FOR_SALE,-1,,1575,FALSE,FALSE,USD,USA,,1306.8,sqft,,,1.71E+12,,5000,,,,https://photos.zillowstatic.com/fp/ce2e0c11925e2972ff8e4af19d34b7ef-p_e.jpg,https://www.zillow.com/homedetails/930-W-965th-St-N-UNIT-304-Orem-UT-84057/2062986891_zpid/,
347184719,5 S 500th St W 616,Salt Lake City,UT,84101,40.76887,-111.9053,365000,1,1,697,CONDO,FOR_SALE,-1,364500,1500,FALSE,FALSE,USD,USA,,435.6,sqft,,,,,,,,,https://photos.zillowstatic.com/fp/33a6012d59071ba5703dbeb95e06d734-p_e.jpg,https://www.zillow.com/homedetails/5-S-500th-St-W-616-Salt-Lake-City-UT-84101/347184719_zpid/,243
12776717,2171 S 1700 E,Salt Lake City,UT,84106,40.723663,-111.841675,975000,4,8,3664,MULTI_FAMILY,FOR_SALE,-1,955800,3816,FALSE,FALSE,USD,USA,582200,0.26,acres,,,1.71E+12,"$25,000 (Apr 24)",-25000,,,,https://photos.zillowstatic.com/fp/2d3b8260b7a6843b3421b17631ff8803-p_e.jpg,https://www.zillow.com/homedetails/2171-S-1700-E-Salt-Lake-City-UT-84106/12776717_zpid/,250.4716981
12758893,738 S 1300 E,Salt Lake City,UT,84102,40.753033,-111.85437,974900,4,6,3319,MULTI_FAMILY,FOR_SALE,-1,935200,3692,FALSE,FALSE,USD,USA,854700,7405.2,sqft,,,1.71E+12,,15900,,,,https://photos.zillowstatic.com/fp/08ccf79f3f4a37a4a671481b18a2224a-p_e.jpg,https://www.zillow.com/homedetails/738-S-1300-E-Salt-Lake-City-UT-84102/12758893_zpid/,253.304442
12776360,2714 S McClelland St,Salt Lake City,UT,84106,40.712337,-111.86148,665000,2,4,2180,SINGLE_FAMILY,FOR_SALE,-1,659600,2850,FALSE,FALSE,USD,USA,457900,5662.8,sqft,,,1.71E+12,"$30,000 (Apr 15)",-30000,,,,https://photos.zillowstatic.com/fp/46966cd3b500c7019d9bfc58ec72b49d-p_e.jpg,https://www.zillow.com/homedetails/2714-S-McClelland-St-Salt-Lake-City-UT-84106/12776360_zpid/,231.4385965
12714447,651 N 1200 W APT D303,Salt Lake City,UT,84116,40.783577,-111.92602,245000,1,2,916,CONDO,FOR_SALE,-1,239200,1450,FALSE,FALSE,USD,USA,171100,435.6,sqft,,,,,,,,,https://photos.zillowstatic.com/fp/7cdf8df1291e89cbde45dc7b106415ed-p_e.jpg,https://www.zillow.com/homedetails/651-N-1200-W-APT-D303-Salt-Lake-City-UT-84116/12714447_zpid/,164.9655172
12740295,20 W Layton Ave,Salt Lake City,UT,84115,40.73009,-111.89193,455000,1,2,1599,SINGLE_FAMILY,FOR_SALE,-1,447100,1949,FALSE,FALSE,USD,USA,356400,4791.6,sqft,,,1.71E+12,"$5,000 (Apr 2)",-5000,,,,https://photos.zillowstatic.com/fp/8f6b92c661c2640692c606ef3e0d7829-p_e.jpg,https://www.zillow.com/homedetails/20-W-Layton-Ave-Salt-Lake-City-UT-84115/12740295_zpid/,229.3996921
12771910,623 E Harrison Ave,Salt Lake City,UT,84105,40.74024,-111.87302,699888,2,3,1662,SINGLE_FAMILY,FOR_SALE,-1,672300,2594,FALSE,FALSE,USD,USA,377000,4791.6,sqft,,,1.71E+12,"$7,889 (Mar 8)",-7889,TRUE,Sat. 12-2pm,"[{'open_house_start': 1714244400000, 'open_house_end': 1714251600000}]",https://photos.zillowstatic.com/fp/430ec1c7d7697335344541f7ace8f497-p_e.jpg,https://www.zillow.com/homedetails/623-E-Harrison-Ave-Salt-Lake-City-UT-84105/12771910_zpid/,259.1750193
12735262,380 W 200 S APT 202,Salt Lake City,UT,84101,40.765625,-111.90223,579000,2,2,1434,CONDO,FOR_SALE,-1,564100,2331,FALSE,FALSE,USD,USA,455000,435.6,sqft,,,,,,,,,https://photos.zillowstatic.com/fp/4eb90f5ebd09718e9251bffe0e77aeab-p_e.jpg,https://www.zillow.com/homedetails/380-W-200-S-APT-202-Salt-Lake-City-UT-84101/12735262_zpid/,241.999142
12813729,3246 W Spring Glen Cir,West Valley City,UT,84119,40.681545,-111.96847,525000,3,5,2240,SINGLE_FAMILY,FOR_SALE,-1,527400,2625,FALSE,FALSE,USD,USA,393500,0.26,acres,,,,,,,,,https://photos.zillowstatic.com/fp/d6f76d9898d71384a2f856270b41e83d-p_e.jpg,https://www.zillow.com/homedetails/3246-W-Spring-Glen-Cir-West-Valley-City-UT-84119/12813729_zpid/,200.9142857
2072722876,44 W 300 S 502,Salt Lake City,UT,84101,40.763332,-111.89242,450000,2,2,1327,CONDO,FOR_SALE,-1,452000,2221,FALSE,FALSE,USD,USA,,,,,,,,,,,,https://photos.zillowstatic.com/fp/5036ced37b84fd219a591d5761214290-p_e.jpg,https://www.zillow.com/homedetails/44-W-300-S-502-Salt-Lake-City-UT-84101/2072722876_zpid/,203.5119316
61167592,3075 E Kennedy Dr APT 121,Salt Lake City,UT,84108,40.74821,-111.80362,599900,2,2,1725,CONDO,FOR_SALE,-1,579100,2729,FALSE,FALSE,USD,USA,478700,435.6,sqft,,,1.71E+12,"$10,100 (Apr 19)",-10100,TRUE,Sat. 11am-1pm,"[{'open_house_start': 1714240800000, 'open_house_end': 1714248000000}]",https://photos.zillowstatic.com/fp/2ae6bea419901af5fae2370f7d5652e4-p_e.jpg,https://www.zillow.com/homedetails/3075-E-Kennedy-Dr-APT-121-Salt-Lake-City-UT-84108/61167592_zpid/,212.2022719
12709756,1799 W Mojave Dr,Salt Lake City,UT,84116,40.800797,-111.94243,479900,2,4,1728,SINGLE_FAMILY,FOR_SALE,-1,472400,2550,FALSE,FALSE,USD,USA,313000,7405.2,sqft,,,1.71E+12,"$7,100 (Apr 18)",-7100,,,,https://photos.zillowstatic.com/fp/7299a5413a81dde756271e927c173861-p_e.jpg,https://www.zillow.com/homedetails/1799-W-Mojave-Dr-Salt-Lake-City-UT-84116/12709756_zpid/,185.254902
2071362064,606 W Girard Ave N C,Salt Lake City,UT,84116,40.781677,-111.908585,465000,2,2,1348,CONDO,FOR_SALE,-1,468900,2199,FALSE,FALSE,USD,USA,,,,,,,,,,,,https://photos.zillowstatic.com/fp/b2a049897dd81e580a27b6b79dbd367a-p_e.jpg,https://www.zillow.com/homedetails/606-W-Girard-Ave-N-C-Salt-Lake-City-UT-84116/2071362064_zpid/,213.2332879
2072793828,1617 W Treille Ct S I12,West Valley City,UT,84119,40.701927,-111.93709,389900,2,3,1163,CONDO,FOR_SALE,-1,393800,1999,FALSE,FALSE,USD,USA,,,,,,,,,,,,https://photos.zillowstatic.com/fp/1b4c7bfb0a60f450e69cc00303ab78c9-p_e.jpg,https://www.zillow.com/homedetails/1617-W-Treille-Ct-S-I12-West-Valley-City-UT-84119/2072793828_zpid/,196.9984992
12725064,6455 W 3270 S,West Valley City,UT,84128,40.700348,-112.04538,620000,3,5,3216,SINGLE_FAMILY,FOR_SALE,-1,606900,2981,FALSE,FALSE,USD,USA,580000,0.36,acres,,,,,,,,,https://photos.zillowstatic.com/fp/4343e7aa62fab5f993e94e9abbbeff0d-p_e.jpg,https://www.zillow.com/homedetails/6455-W-3270-S-West-Valley-City-UT-84128/12725064_zpid/,203.5893995
2080123834,3599 S Xenon Dr 157,West Valley City,UT,84119,40.69429,-111.93566,542000,3,4,2399,TOWNHOUSE,FOR_SALE,-1,540200,2600,FALSE,FALSE,USD,USA,,1306.8,sqft,,,1.71E+12,"$8,000 (Mar 11)",-8000,,,,https://photos.zillowstatic.com/fp/94b9fd8178a9d66bb69334c6851e7682-p_e.jpg,https://www.zillow.com/homedetails/3599-S-Xenon-Dr-157-West-Valley-City-UT-84119/2080123834_zpid/,207.7692308
12742065,2565 S Fargo St,West Valley City,UT,84119,40.7152,-111.92957,590000,2,9,2052,SINGLE_FAMILY,FOR_SALE,-1,,2581,FALSE,FALSE,USD,USA,317400,0.5,acres,,,,,,,,,https://photos.zillowstatic.com/fp/1165c26a5b5caf03fc8ce58fe2d4e4ce-p_e.jpg,https://www.zillow.com/homedetails/2565-S-Fargo-St-West-Valley-City-UT-84119/12742065_zpid/,
12756084,550 S 400 E APT 3307,Salt Lake City,UT,84111,40.757114,-111.88032,380000,2,2,912,CONDO,FOR_SALE,-1,372300,1597,FALSE,FALSE,USD,USA,293000,4356,sqft,,,,,,,,,https://photos.zillowstatic.com/fp/e5420e08ae4016843de83f87353fa78d-p_e.jpg,https://www.zillow.com/homedetails/550-S-400-E-APT-3307-Salt-Lake-City-UT-84111/12756084_zpid/,233.1246086
12717717,819 N Juniperpoint Dr,Salt Lake City,UT,84103,40.786205,-111.878426,1079000,3,5,3800,CONDO,FOR_SALE,-1,1073100,3510,FALSE,FALSE,USD,USA,629400,435.6,sqft,,,,,,,,,https://photos.zillowstatic.com/fp/b3daa59f977cb6ccee614be77d2bff41-p_e.jpg,https://www.zillow.com/homedetails/819-N-Juniperpoint-Dr-Salt-Lake-City-UT-84103/12717717_zpid/,305.7264957
2071392151,1367 S Dokos Ln W,Salt Lake City,UT,84104,40.739586,-111.937035,589000,4,5,2476,SINGLE_FAMILY,FOR_SALE,-1,561000,2700,FALSE,FALSE,USD,USA,,4356,sqft,,,,,,,,,https://photos.zillowstatic.com/fp/0767b5b8a1774e7862ea34f9ec61849a-p_e.jpg,https://www.zillow.com/homedetails/1367-S-Dokos-Ln-W-Salt-Lake-City-UT-84104/2071392151_zpid/,207.7777778
2067129271,1018 N 985th St W 514,Orem,UT,84057,40.31583,-111.71983,349900,2,3,1442,CONDO,FOR_SALE,-1,353200,1999,FALSE,FALSE,USD,USA,,1306.8,sqft,,,1.71E+12,$100 (Apr 17),-100,,,,https://photos.zillowstatic.com/fp/ff7ae852ab600bca96a62e76c98bc794-p_e.jpg,https://www.zillow.com/homedetails/1018-N-985th-St-W-514-Orem-UT-84057/2067129271_zpid/,176.6883442
11931917,222 N 550 E,Orem,UT,84097,40.30127,-111.68222,522600,3,6,2648,SINGLE_FAMILY,FOR_SALE,-1,502100,2834,FALSE,FALSE,USD,USA,306000,0.27,acres,,,1.71E+12,,100,,,,https://photos.zillowstatic.com/fp/facbeef7aa3f0d72cf7ea42bab4b925e-p_e.jpg,https://www.zillow.com/homedetails/222-N-550-E-Orem-UT-84097/11931917_zpid/,177.1700776
55717831,880 E 1810 N,Orem,UT,84097,40.330376,-111.675224,1155000,5,7,4672,SINGLE_FAMILY,FOR_SALE,-1,1141800,3844,FALSE,FALSE,USD,USA,587800,0.4,acres,,,1.71E+12,"$94,000 (Apr 23)",-94000,,,,https://photos.zillowstatic.com/fp/e54f87bf71fbebbd3a2bf4e0de40d715-p_e.jpg,https://www.zillow.com/homedetails/880-E-1810-N-Orem-UT-84097/55717831_zpid/,297.0343392
11921812,481 E 90 N,Orem,UT,84097,40.298725,-111.68402,499900,3,4,2788,TOWNHOUSE,FOR_SALE,-1,489900,2500,FALSE,FALSE,USD,USA,307100,2178,sqft,,,1.71E+12,,4900,,,,https://photos.zillowstatic.com/fp/d1ef383d4bf56985a87781b3697651be-p_e.jpg,https://www.zillow.com/homedetails/481-E-90-N-Orem-UT-84097/11921812_zpid/,195.96
11942155,970 E 315 S,Orem,UT,84097,40.29109,-111.6723,875000,4,5,4003,SINGLE_FAMILY,FOR_SALE,-1,864700,3335,FALSE,FALSE,USD,USA,411200,0.29,acres,,,,,,,,,https://photos.zillowstatic.com/fp/008c2698505c60ef825cb9e17d5547f7-p_e.jpg,https://www.zillow.com/homedetails/970-E-315-S-Orem-UT-84097/11942155_zpid/,259.2803598
11911386,942 E 80 N,Orem,UT,84097,40.298378,-111.672905,1150000,4,7,5034,SINGLE_FAMILY,FOR_SALE,-1,1107300,4776,FALSE,FALSE,USD,USA,632300,0.32,acres,,,,,,,,,https://photos.zillowstatic.com/fp/02142d05bcfd3460b7d6cc5d15149817-p_e.jpg,https://www.zillow.com/homedetails/942-E-80-N-Orem-UT-84097/11911386_zpid/,231.8467337
12755478,29 S State St APT 418,Salt Lake City,UT,84111,40.76843,-111.8878,259900,1,0,441,CONDO,FOR_SALE,-1,263100,1298,FALSE,FALSE,USD,USA,257000,435.6,sqft,,,,,,,,,https://photos.zillowstatic.com/fp/d69de1ad7c1788e4b37bd36efdcfefd7-p_e.jpg,https://www.zillow.com/homedetails/29-S-State-St-APT-418-Salt-Lake-City-UT-84111/12755478_zpid/,202.6964561
2072621007,123 E 2nd Ave N 902,Salt Lake City,UT,84103,40.77221,-111.88635,505000,2,2,1110,CONDO,FOR_SALE,-1,497800,1881,FALSE,FALSE,USD,USA,,435.6,sqft,,,1.71E+12,"$10,000 (Apr 12)",-10000,,,,https://photos.zillowstatic.com/fp/2df3f8f8c5aad5f65e654c03f53cb2dc-p_e.jpg,https://www.zillow.com/homedetails/123-E-2nd-Ave-N-902-Salt-Lake-City-UT-84103/2072621007_zpid/,264.6464646
12776411,1142 E 2700 S APT M101,Salt Lake City,UT,84106,40.7113,-111.85811,425000,2,2,1386,CONDO,FOR_SALE,-1,422200,2414,FALSE,FALSE,USD,USA,294100,435.6,sqft,,,1.71E+12,,56000,,,,https://photos.zillowstatic.com/fp/5a116c6ce7855c5421751dcdb458471d-p_e.jpg,https://www.zillow.com/homedetails/1142-E-2700-S-APT-M101-Salt-Lake-City-UT-84106/12776411_zpid/,174.8964374
12739142,1141 S Emery St,Salt Lake City,UT,84104,40.744675,-111.9244,389900,1,3,918,SINGLE_FAMILY,FOR_SALE,-1,391100,1814,FALSE,FALSE,USD,USA,266200,6098.4,sqft,,,1.71E+12,"$10,000 (Apr 23)",-10000,,,,https://photos.zillowstatic.com/fp/8bf04081551f5ef54a1392ef50a8315c-p_e.jpg,https://www.zillow.com/homedetails/1141-S-Emery-St-Salt-Lake-City-UT-84104/12739142_zpid/,215.600882
2072723894,1004 S Lake St E,Salt Lake City,UT,84105,40.74716,-111.87001,1200000,4,6,2808,MULTI_FAMILY,FOR_SALE,-1,1204800,3849,FALSE,FALSE,USD,USA,,7840.8,sqft,,,,,,,,,https://photos.zillowstatic.com/fp/57342ef5406b6c88292392e34e89531f-p_e.jpg,https://www.zillow.com/homedetails/1004-S-Lake-St-E-Salt-Lake-City-UT-84105/2072723894_zpid/,313.0163679
68907580,746 S Main St,Orem,UT,84058,40.283432,-111.69556,500000,3,3,1982,SINGLE_FAMILY,FOR_SALE,-1,500700,2197,FALSE,FALSE,USD,USA,259000,7840.8,sqft,,,1.71E+12,"$15,000 (Apr 24)",-15000,,,,https://photos.zillowstatic.com/fp/bdb8de9a54728b393b9004fc9f42095b-p_e.jpg,https://www.zillow.com/homedetails/746-S-Main-St-Orem-UT-84058/68907580_zpid/,227.9016841
11954669,180 N 85 E,Orem,UT,84057,40.300453,-111.69332,379900,2,3,1378,TOWNHOUSE,FOR_SALE,-1,373300,1746,FALSE,FALSE,USD,USA,214500,435.6,sqft,,,1.71E+12,"$2,000 (Apr 9)",-2000,,,,https://photos.zillowstatic.com/fp/013761e1723ac413416cc170a689ba8b-p_e.jpg,https://www.zillow.com/homedetails/180-N-85-E-Orem-UT-84057/11954669_zpid/,213.8029782
12744570,3882 W Detevis Cir,West Valley City,UT,84120,40.706642,-111.98383,482000,2,5,1520,SINGLE_FAMILY,FOR_SALE,-1,471700,2513,FALSE,FALSE,USD,USA,373400,8276.4,sqft,,,,,,,,,https://photos.zillowstatic.com/fp/72a88c68f2c94a5433d830ac728c749a-p_e.jpg,https://www.zillow.com/homedetails/3882-W-Detevis-Cir-West-Valley-UT-84120/12744570_zpid/,187.7039395
